[
  {
    "id": 52,
    "name": "Ashkāsham",
    "state_id": 3901,
    "state_code": "BDS",
    "country_id": 1,
    "country_code": "AF",
    "latitude": "36.68333000",
    "longitude": "71.53333000"
  },
  {
    "id": 68,
    "name": "Fayzabad",
    "state_id": 3901,
    "state_code": "BDS",
    "country_id": 1,
    "country_code": "AF",
    "latitude": "37.11664000",
    "longitude": "70.58002000"
  },
  {
    "id": 78,
    "name": "Jurm",
    "state_id": 3901,
    "state_code": "BDS",
    "country_id": 1,
    "country_code": "AF",
    "latitude": "36.86477000",
    "longitude": "70.83421000"
  },
  {
    "id": 84,
    "name": "Khandūd",
    "state_id": 3901,
    "state_code": "BDS",
    "country_id": 1,
    "country_code": "AF",
    "latitude": "36.95127000",
    "longitude": "72.31800000"
  },
  {
    "id": 115,
    "name": "Rāghistān",
    "state_id": 3901,
    "state_code": "BDS",
    "country_id": 1,
    "country_code": "AF",
    "latitude": "37.66079000",
    "longitude": "70.67346000"
  },
  {
    "id": 131,
    "name": "Wākhān",
    "state_id": 3901,
    "state_code": "BDS",
    "country_id": 1,
    "country_code": "AF",
    "latitude": "37.05710000",
    "longitude": "73.34928000"
  },
  {
    "id": 72,
    "name": "Ghormach",
    "state_id": 3871,
    "state_code": "BDG",
    "country_id": 1,
    "country_code": "AF",
    "latitude": "35.73062000",
    "longitude": "63.78264000"
  },
  {
    "id": 108,
    "name": "Qala i Naw",
    "state_id": 3871,
    "state_code": "BDG",
    "country_id": 1,
    "country_code": "AF",
    "latitude": "34.98735000",
    "longitude": "63.12891000"
  },
  {
    "id": 54,
    "name": "Baghlān",
    "state_id": 3875,
    "state_code": "BGL",
    "country_id": 1,
    "country_code": "AF",
    "latitude": "36.13068000",
    "longitude": "68.70829000"
  },
  {
    "id": 140,
    "name": "Ḩukūmatī Dahanah-ye Ghōrī",
    "state_id": 3875,
    "state_code": "BGL",
    "country_id": 1,
    "country_code": "AF",
    "latitude": "35.90617000",
    "longitude": "68.48869000"
  },
  {
    "id": 101,
    "name": "Nahrīn",
    "state_id": 3875,
    "state_code": "BGL",
    "country_id": 1,
    "country_code": "AF",
    "latitude": "36.06490000",
    "longitude": "69.13343000"
  },
  {
    "id": 105,
    "name": "Pul-e Khumrī",
    "state_id": 3875,
    "state_code": "BGL",
    "country_id": 1,
    "country_code": "AF",
    "latitude": "35.94458000",
    "longitude": "68.71512000"
  },
  {
    "id": 55,
    "name": "Balkh",
    "state_id": 3884,
    "state_code": "BAL",
    "country_id": 1,
    "country_code": "AF",
    "latitude": "36.75635000",
    "longitude": "66.89720000"
  },
  {
    "id": 65,
    "name": "Dowlatābād",
    "state_id": 3884,
    "state_code": "BAL",
    "country_id": 1,
    "country_code": "AF",
    "latitude": "36.98821000",
    "longitude": "66.82069000"
  },
  {
    "id": 85,
    "name": "Khulm",
    "state_id": 3884,
    "state_code": "BAL",
    "country_id": 1,
    "country_code": "AF",
    "latitude": "36.69736000",
    "longitude": "67.69826000"
  },
  {
    "id": 91,
    "name": "Lab-Sar",
    "state_id": 3884,
    "state_code": "BAL",
    "country_id": 1,
    "country_code": "AF",
    "latitude": "36.02634000",
    "longitude": "66.83799000"
  },
  {
    "id": 97,
    "name": "Mazār-e Sharīf",
    "state_id": 3884,
    "state_code": "BAL",
    "country_id": 1,
    "country_code": "AF",
    "latitude": "36.70904000",
    "longitude": "67.11087000"
  },
  {
    "id": 112,
    "name": "Qarchī Gak",
    "state_id": 3884,
    "state_code": "BAL",
    "country_id": 1,
    "country_code": "AF",
    "latitude": "37.03999000",
    "longitude": "66.78891000"
  },
  {
    "id": 57,
    "name": "Bāmyān",
    "state_id": 3872,
    "state_code": "BAM",
    "country_id": 1,
    "country_code": "AF",
    "latitude": "34.82156000",
    "longitude": "67.82734000"
  },
  {
    "id": 104,
    "name": "Panjāb",
    "state_id": 3872,
    "state_code": "BAM",
    "country_id": 1,
    "country_code": "AF",
    "latitude": "34.38795000",
    "longitude": "67.02327000"
  },
  {
    "id": 102,
    "name": "Nīlī",
    "state_id": 3892,
    "state_code": "DAY",
    "country_id": 1,
    "country_code": "AF",
    "latitude": "33.76329000",
    "longitude": "66.07617000"
  },
  {
    "id": 66,
    "name": "Farah",
    "state_id": 3899,
    "state_code": "FRA",
    "country_id": 1,
    "country_code": "AF",
    "latitude": "32.37451000",
    "longitude": "62.11638000"
  },
  {
    "id": 50,
    "name": "Andkhoy",
    "state_id": 3889,
    "state_code": "FYB",
    "country_id": 1,
    "country_code": "AF",
    "latitude": "36.95293000",
    "longitude": "65.12376000"
  },
  {
    "id": 96,
    "name": "Maymana",
    "state_id": 3889,
    "state_code": "FYB",
    "country_id": 1,
    "country_code": "AF",
    "latitude": "35.92139000",
    "longitude": "64.78361000"
  },
  {
    "id": 71,
    "name": "Ghazni",
    "state_id": 3870,
    "state_code": "GHA",
    "country_id": 1,
    "country_code": "AF",
    "latitude": "33.55391000",
    "longitude": "68.42096000"
  },
  {
    "id": 67,
    "name": "Fayrōz Kōh",
    "state_id": 3888,
    "state_code": "GHO",
    "country_id": 1,
    "country_code": "AF",
    "latitude": "34.51952000",
    "longitude": "65.25093000"
  },
  {
    "id": 121,
    "name": "Shahrak",
    "state_id": 3888,
    "state_code": "GHO",
    "country_id": 1,
    "country_code": "AF",
    "latitude": "34.10737000",
    "longitude": "64.30520000"
  },
  {
    "id": 141,
    "name": "‘Alāqahdārī Dīshū",
    "state_id": 3873,
    "state_code": "HEL",
    "country_id": 1,
    "country_code": "AF",
    "latitude": "30.43206000",
    "longitude": "63.29802000"
  },
  {
    "id": 70,
    "name": "Gereshk",
    "state_id": 3873,
    "state_code": "HEL",
    "country_id": 1,
    "country_code": "AF",
    "latitude": "31.82089000",
    "longitude": "64.57005000"
  },
  {
    "id": 93,
    "name": "Lashkar Gāh",
    "state_id": 3873,
    "state_code": "HEL",
    "country_id": 1,
    "country_code": "AF",
    "latitude": "31.59382000",
    "longitude": "64.37161000"
  },
  {
    "id": 95,
    "name": "Markaz-e Ḩukūmat-e Darwēshān",
    "state_id": 3873,
    "state_code": "HEL",
    "country_id": 1,
    "country_code": "AF",
    "latitude": "31.13231000",
    "longitude": "64.19340000"
  },
  {
    "id": 118,
    "name": "Sangīn",
    "state_id": 3873,
    "state_code": "HEL",
    "country_id": 1,
    "country_code": "AF",
    "latitude": "32.07275000",
    "longitude": "64.83590000"
  },
  {
    "id": 60,
    "name": "Chahār Burj",
    "state_id": 3887,
    "state_code": "HER",
    "country_id": 1,
    "country_code": "AF",
    "latitude": "34.24475000",
    "longitude": "62.19165000"
  },
  {
    "id": 73,
    "name": "Ghōriyān",
    "state_id": 3887,
    "state_code": "HER",
    "country_id": 1,
    "country_code": "AF",
    "latitude": "34.34480000",
    "longitude": "61.49321000"
  },
  {
    "id": 74,
    "name": "Herāt",
    "state_id": 3887,
    "state_code": "HER",
    "country_id": 1,
    "country_code": "AF",
    "latitude": "34.34817000",
    "longitude": "62.19967000"
  },
  {
    "id": 80,
    "name": "Kafir Qala",
    "state_id": 3887,
    "state_code": "HER",
    "country_id": 1,
    "country_code": "AF",
    "latitude": "34.66667000",
    "longitude": "61.06667000"
  },
  {
    "id": 82,
    "name": "Karukh",
    "state_id": 3887,
    "state_code": "HER",
    "country_id": 1,
    "country_code": "AF",
    "latitude": "34.48108000",
    "longitude": "62.58630000"
  },
  {
    "id": 88,
    "name": "Kuhsān",
    "state_id": 3887,
    "state_code": "HER",
    "country_id": 1,
    "country_code": "AF",
    "latitude": "34.65389000",
    "longitude": "61.19778000"
  },
  {
    "id": 90,
    "name": "Kushk",
    "state_id": 3887,
    "state_code": "HER",
    "country_id": 1,
    "country_code": "AF",
    "latitude": "33.29565000",
    "longitude": "61.95221000"
  },
  {
    "id": 111,
    "name": "Qarah Bāgh",
    "state_id": 3887,
    "state_code": "HER",
    "country_id": 1,
    "country_code": "AF",
    "latitude": "34.94023000",
    "longitude": "61.77589000"
  },
  {
    "id": 123,
    "name": "Shīnḏanḏ",
    "state_id": 3887,
    "state_code": "HER",
    "country_id": 1,
    "country_code": "AF",
    "latitude": "33.30294000",
    "longitude": "62.14740000"
  },
  {
    "id": 129,
    "name": "Tīr Pul",
    "state_id": 3887,
    "state_code": "HER",
    "country_id": 1,
    "country_code": "AF",
    "latitude": "34.59431000",
    "longitude": "61.26895000"
  },
  {
    "id": 135,
    "name": "Zindah Jān",
    "state_id": 3887,
    "state_code": "HER",
    "country_id": 1,
    "country_code": "AF",
    "latitude": "34.34264000",
    "longitude": "61.74675000"
  },
  {
    "id": 136,
    "name": "Āqchah",
    "state_id": 3886,
    "state_code": "JOW",
    "country_id": 1,
    "country_code": "AF",
    "latitude": "36.90500000",
    "longitude": "66.18341000"
  },
  {
    "id": 63,
    "name": "Darzāb",
    "state_id": 3886,
    "state_code": "JOW",
    "country_id": 1,
    "country_code": "AF",
    "latitude": "35.97744000",
    "longitude": "65.37828000"
  },
  {
    "id": 113,
    "name": "Qarqīn",
    "state_id": 3886,
    "state_code": "JOW",
    "country_id": 1,
    "country_code": "AF",
    "latitude": "37.41853000",
    "longitude": "66.04358000"
  },
  {
    "id": 122,
    "name": "Shibirghān",
    "state_id": 3886,
    "state_code": "JOW",
    "country_id": 1,
    "country_code": "AF",
    "latitude": "36.66757000",
    "longitude": "65.75290000"
  },
  {
    "id": 79,
    "name": "Kabul",
    "state_id": 3902,
    "state_code": "KAB",
    "country_id": 1,
    "country_code": "AF",
    "latitude": "34.52813000",
    "longitude": "69.17233000"
  },
  {
    "id": 99,
    "name": "Mīr Bachah Kōṯ",
    "state_id": 3902,
    "state_code": "KAB",
    "country_id": 1,
    "country_code": "AF",
    "latitude": "34.74999000",
    "longitude": "69.11899000"
  },
  {
    "id": 103,
    "name": "Paghmān",
    "state_id": 3902,
    "state_code": "KAB",
    "country_id": 1,
    "country_code": "AF",
    "latitude": "34.58787000",
    "longitude": "68.95091000"
  },
  {
    "id": 81,
    "name": "Kandahār",
    "state_id": 3890,
    "state_code": "KAN",
    "country_id": 1,
    "country_code": "AF",
    "latitude": "31.61332000",
    "longitude": "65.71013000"
  },
  {
    "id": 124,
    "name": "Sidqābād",
    "state_id": 3879,
    "state_code": "KAP",
    "country_id": 1,
    "country_code": "AF",
    "latitude": "35.02298000",
    "longitude": "69.35112000"
  },
  {
    "id": 87,
    "name": "Khōst",
    "state_id": 3878,
    "state_code": "KHO",
    "country_id": 1,
    "country_code": "AF",
    "latitude": "33.33951000",
    "longitude": "69.92041000"
  },
  {
    "id": 51,
    "name": "Asadabad",
    "state_id": 3876,
    "state_code": "KNR",
    "country_id": 1,
    "country_code": "AF",
    "latitude": "34.87311000",
    "longitude": "71.14697000"
  },
  {
    "id": 138,
    "name": "Āsmār",
    "state_id": 3876,
    "state_code": "KNR",
    "country_id": 1,
    "country_code": "AF",
    "latitude": "35.03333000",
    "longitude": "71.35809000"
  },
  {
    "id": 64,
    "name": "Dasht-e Archī",
    "state_id": 3900,
    "state_code": "KDZ",
    "country_id": 1,
    "country_code": "AF",
    "latitude": "37.13333000",
    "longitude": "69.16667000"
  },
  {
    "id": 75,
    "name": "Imām Şāḩib",
    "state_id": 3900,
    "state_code": "KDZ",
    "country_id": 1,
    "country_code": "AF",
    "latitude": "37.18897000",
    "longitude": "68.93644000"
  },
  {
    "id": 83,
    "name": "Khanabad",
    "state_id": 3900,
    "state_code": "KDZ",
    "country_id": 1,
    "country_code": "AF",
    "latitude": "36.68250000",
    "longitude": "69.11556000"
  },
  {
    "id": 89,
    "name": "Kunduz",
    "state_id": 3900,
    "state_code": "KDZ",
    "country_id": 1,
    "country_code": "AF",
    "latitude": "36.72895000",
    "longitude": "68.85700000"
  },
  {
    "id": 114,
    "name": "Qarāwul",
    "state_id": 3900,
    "state_code": "KDZ",
    "country_id": 1,
    "country_code": "AF",
    "latitude": "37.21959000",
    "longitude": "68.78020000"
  },
  {
    "id": 98,
    "name": "Mehtar Lām",
    "state_id": 3891,
    "state_code": "LAG",
    "country_id": 1,
    "country_code": "AF",
    "latitude": "34.67139000",
    "longitude": "70.20944000"
  },
  {
    "id": 56,
    "name": "Baraki Barak",
    "state_id": 3897,
    "state_code": "LOG",
    "country_id": 1,
    "country_code": "AF",
    "latitude": "33.96744000",
    "longitude": "68.94920000"
  },
  {
    "id": 139,
    "name": "Ḩukūmatī Azrah",
    "state_id": 3897,
    "state_code": "LOG",
    "country_id": 1,
    "country_code": "AF",
    "latitude": "34.17355000",
    "longitude": "69.64573000"
  },
  {
    "id": 106,
    "name": "Pul-e ‘Alam",
    "state_id": 3897,
    "state_code": "LOG",
    "country_id": 1,
    "country_code": "AF",
    "latitude": "33.99529000",
    "longitude": "69.02274000"
  },
  {
    "id": 58,
    "name": "Bāsawul",
    "state_id": 3882,
    "state_code": "NAN",
    "country_id": 1,
    "country_code": "AF",
    "latitude": "34.24749000",
    "longitude": "70.87218000"
  },
  {
    "id": 77,
    "name": "Jalālābād",
    "state_id": 3882,
    "state_code": "NAN",
    "country_id": 1,
    "country_code": "AF",
    "latitude": "34.42647000",
    "longitude": "70.45153000"
  },
  {
    "id": 94,
    "name": "Markaz-e Woluswalī-ye Āchīn",
    "state_id": 3882,
    "state_code": "NAN",
    "country_id": 1,
    "country_code": "AF",
    "latitude": "34.12583000",
    "longitude": "70.70778000"
  },
  {
    "id": 86,
    "name": "Khāsh",
    "state_id": 3896,
    "state_code": "NIM",
    "country_id": 1,
    "country_code": "AF",
    "latitude": "31.52919000",
    "longitude": "62.79055000"
  },
  {
    "id": 100,
    "name": "Mīrābād",
    "state_id": 3896,
    "state_code": "NIM",
    "country_id": 1,
    "country_code": "AF",
    "latitude": "30.43624000",
    "longitude": "61.83830000"
  },
  {
    "id": 116,
    "name": "Rūdbār",
    "state_id": 3896,
    "state_code": "NIM",
    "country_id": 1,
    "country_code": "AF",
    "latitude": "30.15000000",
    "longitude": "62.60000000"
  },
  {
    "id": 132,
    "name": "Zaranj",
    "state_id": 3896,
    "state_code": "NIM",
    "country_id": 1,
    "country_code": "AF",
    "latitude": "30.95962000",
    "longitude": "61.86037000"
  },
  {
    "id": 107,
    "name": "Pārūn",
    "state_id": 3880,
    "state_code": "NUR",
    "country_id": 1,
    "country_code": "AF",
    "latitude": "35.42064000",
    "longitude": "70.92261000"
  },
  {
    "id": 69,
    "name": "Gardez",
    "state_id": 3894,
    "state_code": "PIA",
    "country_id": 1,
    "country_code": "AF",
    "latitude": "33.59744000",
    "longitude": "69.22592000"
  },
  {
    "id": 120,
    "name": "Saṟōbī",
    "state_id": 3877,
    "state_code": "PKA",
    "country_id": 1,
    "country_code": "AF",
    "latitude": "32.75221000",
    "longitude": "69.04587000"
  },
  {
    "id": 134,
    "name": "Zaṟah Sharan",
    "state_id": 3877,
    "state_code": "PKA",
    "country_id": 1,
    "country_code": "AF",
    "latitude": "33.14641000",
    "longitude": "68.79213000"
  },
  {
    "id": 133,
    "name": "Zarghūn Shahr",
    "state_id": 3877,
    "state_code": "PKA",
    "country_id": 1,
    "country_code": "AF",
    "latitude": "32.84734000",
    "longitude": "68.44573000"
  },
  {
    "id": 59,
    "name": "Bāzārak",
    "state_id": 3881,
    "state_code": "PAN",
    "country_id": 1,
    "country_code": "AF",
    "latitude": "35.31292000",
    "longitude": "69.51519000"
  },
  {
    "id": 61,
    "name": "Charikar",
    "state_id": 3895,
    "state_code": "PAR",
    "country_id": 1,
    "country_code": "AF",
    "latitude": "35.01361000",
    "longitude": "69.17139000"
  },
  {
    "id": 76,
    "name": "Jabal os Saraj",
    "state_id": 3895,
    "state_code": "PAR",
    "country_id": 1,
    "country_code": "AF",
    "latitude": "35.11833000",
    "longitude": "69.23778000"
  },
  {
    "id": 53,
    "name": "Aībak",
    "state_id": 3883,
    "state_code": "SAM",
    "country_id": 1,
    "country_code": "AF",
    "latitude": "36.26468000",
    "longitude": "68.01551000"
  },
  {
    "id": 62,
    "name": "Chīras",
    "state_id": 3885,
    "state_code": "SAR",
    "country_id": 1,
    "country_code": "AF",
    "latitude": "35.41674000",
    "longitude": "65.98234000"
  },
  {
    "id": 92,
    "name": "Larkird",
    "state_id": 3885,
    "state_code": "SAR",
    "country_id": 1,
    "country_code": "AF",
    "latitude": "35.48936000",
    "longitude": "66.66409000"
  },
  {
    "id": 110,
    "name": "Qal‘ah-ye Shahr",
    "state_id": 3885,
    "state_code": "SAR",
    "country_id": 1,
    "country_code": "AF",
    "latitude": "35.54729000",
    "longitude": "65.56760000"
  },
  {
    "id": 117,
    "name": "Sang-e Chārak",
    "state_id": 3885,
    "state_code": "SAR",
    "country_id": 1,
    "country_code": "AF",
    "latitude": "35.84972000",
    "longitude": "66.43694000"
  },
  {
    "id": 119,
    "name": "Sar-e Pul",
    "state_id": 3885,
    "state_code": "SAR",
    "country_id": 1,
    "country_code": "AF",
    "latitude": "36.21544000",
    "longitude": "65.93249000"
  },
  {
    "id": 125,
    "name": "Tagāw-Bāy",
    "state_id": 3885,
    "state_code": "SAR",
    "country_id": 1,
    "country_code": "AF",
    "latitude": "35.69941000",
    "longitude": "66.06164000"
  },
  {
    "id": 128,
    "name": "Tukzār",
    "state_id": 3885,
    "state_code": "SAR",
    "country_id": 1,
    "country_code": "AF",
    "latitude": "35.94831000",
    "longitude": "66.42132000"
  },
  {
    "id": 137,
    "name": "Ārt Khwājah",
    "state_id": 3893,
    "state_code": "TAK",
    "country_id": 1,
    "country_code": "AF",
    "latitude": "37.08571000",
    "longitude": "69.47958000"
  },
  {
    "id": 126,
    "name": "Taloqan",
    "state_id": 3893,
    "state_code": "TAK",
    "country_id": 1,
    "country_code": "AF",
    "latitude": "36.73605000",
    "longitude": "69.53451000"
  },
  {
    "id": 127,
    "name": "Tarinkot",
    "state_id": 3898,
    "state_code": "URU",
    "country_id": 1,
    "country_code": "AF",
    "latitude": "32.62998000",
    "longitude": "65.87806000"
  },
  {
    "id": 130,
    "name": "Uruzgān",
    "state_id": 3898,
    "state_code": "URU",
    "country_id": 1,
    "country_code": "AF",
    "latitude": "32.92775000",
    "longitude": "66.63253000"
  },
  {
    "id": 109,
    "name": "Qalāt",
    "state_id": 3874,
    "state_code": "ZAB",
    "country_id": 1,
    "country_code": "AF",
    "latitude": "32.10575000",
    "longitude": "66.90833000"
  },
  {
    "id": 153,
    "name": "Banaj",
    "state_id": 629,
    "state_code": "BR",
    "country_id": 3,
    "country_code": "AL",
    "latitude": "40.82492000",
    "longitude": "19.84074000"
  },
  {
    "id": 154,
    "name": "Bashkia Berat",
    "state_id": 629,
    "state_code": "BR",
    "country_id": 3,
    "country_code": "AL",
    "latitude": "40.69997000",
    "longitude": "19.94983000"
  },
  {
    "id": 170,
    "name": "Bashkia Kuçovë",
    "state_id": 629,
    "state_code": "BR",
    "country_id": 3,
    "country_code": "AL",
    "latitude": "40.82489000",
    "longitude": "19.95350000"
  },
  {
    "id": 180,
    "name": "Bashkia Poliçan",
    "state_id": 629,
    "state_code": "BR",
    "country_id": 3,
    "country_code": "AL",
    "latitude": "40.58608000",
    "longitude": "20.04535000"
  },
  {
    "id": 186,
    "name": "Bashkia Skrapar",
    "state_id": 629,
    "state_code": "BR",
    "country_id": 3,
    "country_code": "AL",
    "latitude": "40.56036000",
    "longitude": "20.25477000"
  },
  {
    "id": 191,
    "name": "Berat",
    "state_id": 629,
    "state_code": "BR",
    "country_id": 3,
    "country_code": "AL",
    "latitude": "40.70583000",
    "longitude": "19.95222000"
  },
  {
    "id": 280,
    "name": "Çorovodë",
    "state_id": 629,
    "state_code": "BR",
    "country_id": 3,
    "country_code": "AL",
    "latitude": "40.50417000",
    "longitude": "20.22722000"
  },
  {
    "id": 219,
    "name": "Kuçovë",
    "state_id": 629,
    "state_code": "BR",
    "country_id": 3,
    "country_code": "AL",
    "latitude": "40.80028000",
    "longitude": "19.91667000"
  },
  {
    "id": 238,
    "name": "Poliçan",
    "state_id": 629,
    "state_code": "BR",
    "country_id": 3,
    "country_code": "AL",
    "latitude": "40.61222000",
    "longitude": "20.09806000"
  },
  {
    "id": 242,
    "name": "Rrethi i Beratit",
    "state_id": 629,
    "state_code": "BR",
    "country_id": 3,
    "country_code": "AL",
    "latitude": "40.66667000",
    "longitude": "20.00000000"
  },
  {
    "id": 253,
    "name": "Rrethi i Kuçovës",
    "state_id": 629,
    "state_code": "BR",
    "country_id": 3,
    "country_code": "AL",
    "latitude": "40.83333000",
    "longitude": "19.91667000"
  },
  {
    "id": 258,
    "name": "Rrethi i Skraparit",
    "state_id": 629,
    "state_code": "BR",
    "country_id": 3,
    "country_code": "AL",
    "latitude": "40.55000000",
    "longitude": "20.26667000"
  },
  {
    "id": 273,
    "name": "Ura Vajgurore",
    "state_id": 629,
    "state_code": "BR",
    "country_id": 3,
    "country_code": "AL",
    "latitude": "40.76889000",
    "longitude": "19.87778000"
  },
  {
    "id": 155,
    "name": "Bashkia Bulqizë",
    "state_id": 610,
    "state_code": "09",
    "country_id": 3,
    "country_code": "AL",
    "latitude": "41.47152000",
    "longitude": "20.33192000"
  },
  {
    "id": 165,
    "name": "Bashkia Klos",
    "state_id": 610,
    "state_code": "09",
    "country_id": 3,
    "country_code": "AL",
    "latitude": "41.50826000",
    "longitude": "20.07107000"
  },
  {
    "id": 176,
    "name": "Bashkia Mat",
    "state_id": 610,
    "state_code": "09",
    "country_id": 3,
    "country_code": "AL",
    "latitude": "41.63317000",
    "longitude": "20.01228000"
  },
  {
    "id": 193,
    "name": "Bulqizë",
    "state_id": 610,
    "state_code": "09",
    "country_id": 3,
    "country_code": "AL",
    "latitude": "41.49167000",
    "longitude": "20.22194000"
  },
  {
    "id": 194,
    "name": "Burrel",
    "state_id": 610,
    "state_code": "09",
    "country_id": 3,
    "country_code": "AL",
    "latitude": "41.61028000",
    "longitude": "20.00889000"
  },
  {
    "id": 209,
    "name": "Klos",
    "state_id": 610,
    "state_code": "09",
    "country_id": 3,
    "country_code": "AL",
    "latitude": "41.50694000",
    "longitude": "20.08667000"
  },
  {
    "id": 236,
    "name": "Peshkopi",
    "state_id": 610,
    "state_code": "09",
    "country_id": 3,
    "country_code": "AL",
    "latitude": "41.68500000",
    "longitude": "20.42889000"
  },
  {
    "id": 243,
    "name": "Rrethi i Bulqizës",
    "state_id": 610,
    "state_code": "09",
    "country_id": 3,
    "country_code": "AL",
    "latitude": "41.50000000",
    "longitude": "20.33333000"
  },
  {
    "id": 246,
    "name": "Rrethi i Dibrës",
    "state_id": 610,
    "state_code": "09",
    "country_id": 3,
    "country_code": "AL",
    "latitude": "41.75000000",
    "longitude": "20.33333000"
  },
  {
    "id": 256,
    "name": "Rrethi i Matit",
    "state_id": 610,
    "state_code": "09",
    "country_id": 3,
    "country_code": "AL",
    "latitude": "41.58333000",
    "longitude": "20.08333000"
  },
  {
    "id": 272,
    "name": "Ulëz",
    "state_id": 610,
    "state_code": "09",
    "country_id": 3,
    "country_code": "AL",
    "latitude": "41.68278000",
    "longitude": "19.89333000"
  },
  {
    "id": 159,
    "name": "Bashkia Durrës",
    "state_id": 639,
    "state_code": "DR",
    "country_id": 3,
    "country_code": "AL",
    "latitude": "41.42743000",
    "longitude": "19.48690000"
  },
  {
    "id": 168,
    "name": "Bashkia Krujë",
    "state_id": 639,
    "state_code": "DR",
    "country_id": 3,
    "country_code": "AL",
    "latitude": "41.50091000",
    "longitude": "19.72571000"
  },
  {
    "id": 185,
    "name": "Bashkia Shijak",
    "state_id": 639,
    "state_code": "DR",
    "country_id": 3,
    "country_code": "AL",
    "latitude": "41.33558000",
    "longitude": "19.58977000"
  },
  {
    "id": 197,
    "name": "Durrës",
    "state_id": 639,
    "state_code": "DR",
    "country_id": 3,
    "country_code": "AL",
    "latitude": "41.32355000",
    "longitude": "19.45469000"
  },
  {
    "id": 198,
    "name": "Durrës District",
    "state_id": 639,
    "state_code": "DR",
    "country_id": 3,
    "country_code": "AL",
    "latitude": "41.31660000",
    "longitude": "19.45000000"
  },
  {
    "id": 203,
    "name": "Fushë-Krujë",
    "state_id": 639,
    "state_code": "DR",
    "country_id": 3,
    "country_code": "AL",
    "latitude": "41.47833000",
    "longitude": "19.71778000"
  },
  {
    "id": 214,
    "name": "Krujë",
    "state_id": 639,
    "state_code": "DR",
    "country_id": 3,
    "country_code": "AL",
    "latitude": "41.50917000",
    "longitude": "19.79278000"
  },
  {
    "id": 250,
    "name": "Rrethi i Krujës",
    "state_id": 639,
    "state_code": "DR",
    "country_id": 3,
    "country_code": "AL",
    "latitude": "41.55000000",
    "longitude": "19.75000000"
  },
  {
    "id": 265,
    "name": "Shijak",
    "state_id": 639,
    "state_code": "DR",
    "country_id": 3,
    "country_code": "AL",
    "latitude": "41.34556000",
    "longitude": "19.56722000"
  },
  {
    "id": 269,
    "name": "Sukth",
    "state_id": 639,
    "state_code": "DR",
    "country_id": 3,
    "country_code": "AL",
    "latitude": "41.38056000",
    "longitude": "19.53778000"
  },
  {
    "id": 152,
    "name": "Ballsh",
    "state_id": 631,
    "state_code": "04",
    "country_id": 3,
    "country_code": "AL",
    "latitude": "40.59889000",
    "longitude": "19.73472000"
  },
  {
    "id": 157,
    "name": "Bashkia Divjakë",
    "state_id": 631,
    "state_code": "04",
    "country_id": 3,
    "country_code": "AL",
    "latitude": "40.95716000",
    "longitude": "19.52364000"
  },
  {
    "id": 160,
    "name": "Bashkia Fier",
    "state_id": 631,
    "state_code": "04",
    "country_id": 3,
    "country_code": "AL",
    "latitude": "40.72937000",
    "longitude": "19.48690000"
  },
  {
    "id": 174,
    "name": "Bashkia Mallakastër",
    "state_id": 631,
    "state_code": "04",
    "country_id": 3,
    "country_code": "AL",
    "latitude": "40.55669000",
    "longitude": "19.77347000"
  },
  {
    "id": 179,
    "name": "Bashkia Patos",
    "state_id": 631,
    "state_code": "04",
    "country_id": 3,
    "country_code": "AL",
    "latitude": "40.67793000",
    "longitude": "19.65591000"
  },
  {
    "id": 196,
    "name": "Divjakë",
    "state_id": 631,
    "state_code": "04",
    "country_id": 3,
    "country_code": "AL",
    "latitude": "40.99667000",
    "longitude": "19.52944000"
  },
  {
    "id": 200,
    "name": "Fier",
    "state_id": 631,
    "state_code": "04",
    "country_id": 3,
    "country_code": "AL",
    "latitude": "40.72389000",
    "longitude": "19.55611000"
  },
  {
    "id": 201,
    "name": "Fier-Çifçi",
    "state_id": 631,
    "state_code": "04",
    "country_id": 3,
    "country_code": "AL",
    "latitude": "40.71667000",
    "longitude": "19.56667000"
  },
  {
    "id": 227,
    "name": "Lushnjë",
    "state_id": 631,
    "state_code": "04",
    "country_id": 3,
    "country_code": "AL",
    "latitude": "40.94194000",
    "longitude": "19.70500000"
  },
  {
    "id": 234,
    "name": "Patos",
    "state_id": 631,
    "state_code": "04",
    "country_id": 3,
    "country_code": "AL",
    "latitude": "40.68333000",
    "longitude": "19.61944000"
  },
  {
    "id": 235,
    "name": "Patos Fshat",
    "state_id": 631,
    "state_code": "04",
    "country_id": 3,
    "country_code": "AL",
    "latitude": "40.64278000",
    "longitude": "19.65083000"
  },
  {
    "id": 241,
    "name": "Roskovec",
    "state_id": 631,
    "state_code": "04",
    "country_id": 3,
    "country_code": "AL",
    "latitude": "40.73750000",
    "longitude": "19.70222000"
  },
  {
    "id": 254,
    "name": "Rrethi i Mallakastrës",
    "state_id": 631,
    "state_code": "04",
    "country_id": 3,
    "country_code": "AL",
    "latitude": "40.55000000",
    "longitude": "19.78333000"
  },
  {
    "id": 158,
    "name": "Bashkia Dropull",
    "state_id": 621,
    "state_code": "GJ",
    "country_id": 3,
    "country_code": "AL",
    "latitude": "39.98584000",
    "longitude": "20.30529000"
  },
  {
    "id": 164,
    "name": "Bashkia Kelcyrë",
    "state_id": 621,
    "state_code": "GJ",
    "country_id": 3,
    "country_code": "AL",
    "latitude": "40.36196000",
    "longitude": "20.16476000"
  },
  {
    "id": 172,
    "name": "Bashkia Libohovë",
    "state_id": 621,
    "state_code": "GJ",
    "country_id": 3,
    "country_code": "AL",
    "latitude": "40.10754000",
    "longitude": "20.25753000"
  },
  {
    "id": 177,
    "name": "Bashkia Memaliaj",
    "state_id": 621,
    "state_code": "GJ",
    "country_id": 3,
    "country_code": "AL",
    "latitude": "40.41524000",
    "longitude": "19.96911000"
  },
  {
    "id": 183,
    "name": "Bashkia Përmet",
    "state_id": 621,
    "state_code": "GJ",
    "country_id": 3,
    "country_code": "AL",
    "latitude": "40.23246000",
    "longitude": "20.41091000"
  },
  {
    "id": 187,
    "name": "Bashkia Tepelenë",
    "state_id": 621,
    "state_code": "GJ",
    "country_id": 3,
    "country_code": "AL",
    "latitude": "40.26736000",
    "longitude": "19.97003000"
  },
  {
    "id": 204,
    "name": "Gjinkar",
    "state_id": 621,
    "state_code": "GJ",
    "country_id": 3,
    "country_code": "AL",
    "latitude": "40.19944000",
    "longitude": "20.40611000"
  },
  {
    "id": 205,
    "name": "Gjirokastër",
    "state_id": 621,
    "state_code": "GJ",
    "country_id": 3,
    "country_code": "AL",
    "latitude": "40.07583000",
    "longitude": "20.13889000"
  },
  {
    "id": 220,
    "name": "Këlcyrë",
    "state_id": 621,
    "state_code": "GJ",
    "country_id": 3,
    "country_code": "AL",
    "latitude": "40.31306000",
    "longitude": "20.18944000"
  },
  {
    "id": 221,
    "name": "Lazarat",
    "state_id": 621,
    "state_code": "GJ",
    "country_id": 3,
    "country_code": "AL",
    "latitude": "40.04667000",
    "longitude": "20.14750000"
  },
  {
    "id": 225,
    "name": "Libohovë",
    "state_id": 621,
    "state_code": "GJ",
    "country_id": 3,
    "country_code": "AL",
    "latitude": "40.03111000",
    "longitude": "20.26306000"
  },
  {
    "id": 231,
    "name": "Memaliaj",
    "state_id": 621,
    "state_code": "GJ",
    "country_id": 3,
    "country_code": "AL",
    "latitude": "40.35167000",
    "longitude": "19.98028000"
  },
  {
    "id": 240,
    "name": "Përmet",
    "state_id": 621,
    "state_code": "GJ",
    "country_id": 3,
    "country_code": "AL",
    "latitude": "40.23361000",
    "longitude": "20.35167000"
  },
  {
    "id": 270,
    "name": "Tepelenë",
    "state_id": 621,
    "state_code": "GJ",
    "country_id": 3,
    "country_code": "AL",
    "latitude": "40.29583000",
    "longitude": "20.01917000"
  },
  {
    "id": 156,
    "name": "Bashkia Devoll",
    "state_id": 630,
    "state_code": "06",
    "country_id": 3,
    "country_code": "AL",
    "latitude": "40.60078000",
    "longitude": "20.93814000"
  },
  {
    "id": 166,
    "name": "Bashkia Kolonjë",
    "state_id": 630,
    "state_code": "06",
    "country_id": 3,
    "country_code": "AL",
    "latitude": "40.31420000",
    "longitude": "20.61482000"
  },
  {
    "id": 173,
    "name": "Bashkia Maliq",
    "state_id": 630,
    "state_code": "06",
    "country_id": 3,
    "country_code": "AL",
    "latitude": "40.75508000",
    "longitude": "20.60748000"
  },
  {
    "id": 182,
    "name": "Bashkia Pustec",
    "state_id": 630,
    "state_code": "06",
    "country_id": 3,
    "country_code": "AL",
    "latitude": "40.83591000",
    "longitude": "20.89405000"
  },
  {
    "id": 192,
    "name": "Bilisht",
    "state_id": 630,
    "state_code": "06",
    "country_id": 3,
    "country_code": "AL",
    "latitude": "40.62750000",
    "longitude": "20.99000000"
  },
  {
    "id": 199,
    "name": "Ersekë",
    "state_id": 630,
    "state_code": "06",
    "country_id": 3,
    "country_code": "AL",
    "latitude": "40.33778000",
    "longitude": "20.67889000"
  },
  {
    "id": 212,
    "name": "Korçë",
    "state_id": 630,
    "state_code": "06",
    "country_id": 3,
    "country_code": "AL",
    "latitude": "40.61861000",
    "longitude": "20.78083000"
  },
  {
    "id": 223,
    "name": "Leskovik",
    "state_id": 630,
    "state_code": "06",
    "country_id": 3,
    "country_code": "AL",
    "latitude": "40.15139000",
    "longitude": "20.59722000"
  },
  {
    "id": 226,
    "name": "Libonik",
    "state_id": 630,
    "state_code": "06",
    "country_id": 3,
    "country_code": "AL",
    "latitude": "40.70444000",
    "longitude": "20.70861000"
  },
  {
    "id": 228,
    "name": "Maliq",
    "state_id": 630,
    "state_code": "06",
    "country_id": 3,
    "country_code": "AL",
    "latitude": "40.70583000",
    "longitude": "20.69972000"
  },
  {
    "id": 230,
    "name": "Mborje",
    "state_id": 630,
    "state_code": "06",
    "country_id": 3,
    "country_code": "AL",
    "latitude": "40.60333000",
    "longitude": "20.80306000"
  },
  {
    "id": 237,
    "name": "Pogradec",
    "state_id": 630,
    "state_code": "06",
    "country_id": 3,
    "country_code": "AL",
    "latitude": "40.90250000",
    "longitude": "20.65250000"
  },
  {
    "id": 245,
    "name": "Rrethi i Devollit",
    "state_id": 630,
    "state_code": "06",
    "country_id": 3,
    "country_code": "AL",
    "latitude": "40.58333000",
    "longitude": "20.91667000"
  },
  {
    "id": 249,
    "name": "Rrethi i Kolonjës",
    "state_id": 630,
    "state_code": "06",
    "country_id": 3,
    "country_code": "AL",
    "latitude": "40.25000000",
    "longitude": "20.66667000"
  },
  {
    "id": 275,
    "name": "Velçan",
    "state_id": 630,
    "state_code": "06",
    "country_id": 3,
    "country_code": "AL",
    "latitude": "40.95472000",
    "longitude": "20.46222000"
  },
  {
    "id": 278,
    "name": "Voskopojë",
    "state_id": 630,
    "state_code": "06",
    "country_id": 3,
    "country_code": "AL",
    "latitude": "40.63306000",
    "longitude": "20.58889000"
  },
  {
    "id": 151,
    "name": "Bajram Curri",
    "state_id": 623,
    "state_code": "KU",
    "country_id": 3,
    "country_code": "AL",
    "latitude": "42.35734000",
    "longitude": "20.07679000"
  },
  {
    "id": 215,
    "name": "Krumë",
    "state_id": 623,
    "state_code": "KU",
    "country_id": 3,
    "country_code": "AL",
    "latitude": "42.19694000",
    "longitude": "20.41333000"
  },
  {
    "id": 217,
    "name": "Kukës",
    "state_id": 623,
    "state_code": "KU",
    "country_id": 3,
    "country_code": "AL",
    "latitude": "42.07694000",
    "longitude": "20.42194000"
  },
  {
    "id": 247,
    "name": "Rrethi i Hasit",
    "state_id": 623,
    "state_code": "KU",
    "country_id": 3,
    "country_code": "AL",
    "latitude": "42.16667000",
    "longitude": "20.33333000"
  },
  {
    "id": 251,
    "name": "Rrethi i Kukësit",
    "state_id": 623,
    "state_code": "KU",
    "country_id": 3,
    "country_code": "AL",
    "latitude": "42.00000000",
    "longitude": "20.33333000"
  },
  {
    "id": 169,
    "name": "Bashkia Kurbin",
    "state_id": 609,
    "state_code": "08",
    "country_id": 3,
    "country_code": "AL",
    "latitude": "41.62215000",
    "longitude": "19.70734000"
  },
  {
    "id": 171,
    "name": "Bashkia Lezhë",
    "state_id": 609,
    "state_code": "08",
    "country_id": 3,
    "country_code": "AL",
    "latitude": "41.81320000",
    "longitude": "19.64121000"
  },
  {
    "id": 178,
    "name": "Bashkia Mirditë",
    "state_id": 609,
    "state_code": "08",
    "country_id": 3,
    "country_code": "AL",
    "latitude": "41.80953000",
    "longitude": "19.99024000"
  },
  {
    "id": 218,
    "name": "Kurbnesh",
    "state_id": 609,
    "state_code": "08",
    "country_id": 3,
    "country_code": "AL",
    "latitude": "41.77972000",
    "longitude": "20.08361000"
  },
  {
    "id": 222,
    "name": "Laç",
    "state_id": 609,
    "state_code": "08",
    "country_id": 3,
    "country_code": "AL",
    "latitude": "41.63556000",
    "longitude": "19.71306000"
  },
  {
    "id": 224,
    "name": "Lezhë",
    "state_id": 609,
    "state_code": "08",
    "country_id": 3,
    "country_code": "AL",
    "latitude": "41.78361000",
    "longitude": "19.64361000"
  },
  {
    "id": 229,
    "name": "Mamurras",
    "state_id": 609,
    "state_code": "08",
    "country_id": 3,
    "country_code": "AL",
    "latitude": "41.57750000",
    "longitude": "19.69222000"
  },
  {
    "id": 232,
    "name": "Milot",
    "state_id": 609,
    "state_code": "08",
    "country_id": 3,
    "country_code": "AL",
    "latitude": "41.68389000",
    "longitude": "19.71556000"
  },
  {
    "id": 261,
    "name": "Rrëshen",
    "state_id": 609,
    "state_code": "08",
    "country_id": 3,
    "country_code": "AL",
    "latitude": "41.76750000",
    "longitude": "19.87556000"
  },
  {
    "id": 252,
    "name": "Rrethi i Kurbinit",
    "state_id": 609,
    "state_code": "08",
    "country_id": 3,
    "country_code": "AL",
    "latitude": "41.63333000",
    "longitude": "19.71667000"
  },
  {
    "id": 262,
    "name": "Rubik",
    "state_id": 609,
    "state_code": "08",
    "country_id": 3,
    "country_code": "AL",
    "latitude": "41.77444000",
    "longitude": "19.78611000"
  },
  {
    "id": 267,
    "name": "Shëngjin",
    "state_id": 609,
    "state_code": "08",
    "country_id": 3,
    "country_code": "AL",
    "latitude": "41.81361000",
    "longitude": "19.59389000"
  },
  {
    "id": 175,
    "name": "Bashkia Malësi e Madhe",
    "state_id": 626,
    "state_code": "SH",
    "country_id": 3,
    "country_code": "AL",
    "latitude": "42.36798000",
    "longitude": "19.58977000"
  },
  {
    "id": 181,
    "name": "Bashkia Pukë",
    "state_id": 626,
    "state_code": "SH",
    "country_id": 3,
    "country_code": "AL",
    "latitude": "42.02997000",
    "longitude": "19.92778000"
  },
  {
    "id": 188,
    "name": "Bashkia Vau i Dejës",
    "state_id": 626,
    "state_code": "SH",
    "country_id": 3,
    "country_code": "AL",
    "latitude": "42.04834000",
    "longitude": "19.69999000"
  },
  {
    "id": 202,
    "name": "Fushë-Arrëz",
    "state_id": 626,
    "state_code": "SH",
    "country_id": 3,
    "country_code": "AL",
    "latitude": "42.06222000",
    "longitude": "20.01667000"
  },
  {
    "id": 211,
    "name": "Koplik",
    "state_id": 626,
    "state_code": "SH",
    "country_id": 3,
    "country_code": "AL",
    "latitude": "42.21361000",
    "longitude": "19.43639000"
  },
  {
    "id": 239,
    "name": "Pukë",
    "state_id": 626,
    "state_code": "SH",
    "country_id": 3,
    "country_code": "AL",
    "latitude": "42.04444000",
    "longitude": "19.89972000"
  },
  {
    "id": 255,
    "name": "Rrethi i Malësia e Madhe",
    "state_id": 626,
    "state_code": "SH",
    "country_id": 3,
    "country_code": "AL",
    "latitude": "42.33333000",
    "longitude": "19.58333000"
  },
  {
    "id": 257,
    "name": "Rrethi i Shkodrës",
    "state_id": 626,
    "state_code": "SH",
    "country_id": 3,
    "country_code": "AL",
    "latitude": "42.06917000",
    "longitude": "19.53506000"
  },
  {
    "id": 266,
    "name": "Shkodër",
    "state_id": 626,
    "state_code": "SH",
    "country_id": 3,
    "country_code": "AL",
    "latitude": "42.06828000",
    "longitude": "19.51258000"
  },
  {
    "id": 274,
    "name": "Vau i Dejës",
    "state_id": 626,
    "state_code": "SH",
    "country_id": 3,
    "country_code": "AL",
    "latitude": "42.01000000",
    "longitude": "19.62472000"
  },
  {
    "id": 279,
    "name": "Vukatanë",
    "state_id": 626,
    "state_code": "SH",
    "country_id": 3,
    "country_code": "AL",
    "latitude": "42.02806000",
    "longitude": "19.54778000"
  },
  {
    "id": 163,
    "name": "Bashkia Kavajë",
    "state_id": 633,
    "state_code": "TR",
    "country_id": 3,
    "country_code": "AL",
    "latitude": "41.18127000",
    "longitude": "19.55579000"
  },
  {
    "id": 190,
    "name": "Bashkia Vorë",
    "state_id": 633,
    "state_code": "TR",
    "country_id": 3,
    "country_code": "AL",
    "latitude": "41.39804000",
    "longitude": "19.67703000"
  },
  {
    "id": 207,
    "name": "Kamëz",
    "state_id": 633,
    "state_code": "TR",
    "country_id": 3,
    "country_code": "AL",
    "latitude": "41.38167000",
    "longitude": "19.76028000"
  },
  {
    "id": 208,
    "name": "Kavajë",
    "state_id": 633,
    "state_code": "TR",
    "country_id": 3,
    "country_code": "AL",
    "latitude": "41.18556000",
    "longitude": "19.55694000"
  },
  {
    "id": 213,
    "name": "Krrabë",
    "state_id": 633,
    "state_code": "TR",
    "country_id": 3,
    "country_code": "AL",
    "latitude": "41.21556000",
    "longitude": "19.97139000"
  },
  {
    "id": 248,
    "name": "Rrethi i Kavajës",
    "state_id": 633,
    "state_code": "TR",
    "country_id": 3,
    "country_code": "AL",
    "latitude": "41.16667000",
    "longitude": "19.58333000"
  },
  {
    "id": 259,
    "name": "Rrethi i Tiranës",
    "state_id": 633,
    "state_code": "TR",
    "country_id": 3,
    "country_code": "AL",
    "latitude": "41.33333000",
    "longitude": "19.91667000"
  },
  {
    "id": 260,
    "name": "Rrogozhinë",
    "state_id": 633,
    "state_code": "TR",
    "country_id": 3,
    "country_code": "AL",
    "latitude": "41.07639000",
    "longitude": "19.66528000"
  },
  {
    "id": 268,
    "name": "Sinaballaj",
    "state_id": 633,
    "state_code": "TR",
    "country_id": 3,
    "country_code": "AL",
    "latitude": "41.06889000",
    "longitude": "19.69944000"
  },
  {
    "id": 271,
    "name": "Tirana",
    "state_id": 633,
    "state_code": "TR",
    "country_id": 3,
    "country_code": "AL",
    "latitude": "41.32750000",
    "longitude": "19.81889000"
  },
  {
    "id": 277,
    "name": "Vorë",
    "state_id": 633,
    "state_code": "TR",
    "country_id": 3,
    "country_code": "AL",
    "latitude": "41.39083000",
    "longitude": "19.65500000"
  },
  {
    "id": 161,
    "name": "Bashkia Finiq",
    "state_id": 634,
    "state_code": "12",
    "country_id": 3,
    "country_code": "AL",
    "latitude": "39.84393000",
    "longitude": "20.16659000"
  },
  {
    "id": 162,
    "name": "Bashkia Himarë",
    "state_id": 634,
    "state_code": "12",
    "country_id": 3,
    "country_code": "AL",
    "latitude": "40.11581000",
    "longitude": "19.81389000"
  },
  {
    "id": 167,
    "name": "Bashkia Konispol",
    "state_id": 634,
    "state_code": "12",
    "country_id": 3,
    "country_code": "AL",
    "latitude": "39.70064000",
    "longitude": "20.13353000"
  },
  {
    "id": 184,
    "name": "Bashkia Selenicë",
    "state_id": 634,
    "state_code": "12",
    "country_id": 3,
    "country_code": "AL",
    "latitude": "40.39503000",
    "longitude": "19.65958000"
  },
  {
    "id": 189,
    "name": "Bashkia Vlorë",
    "state_id": 634,
    "state_code": "12",
    "country_id": 3,
    "country_code": "AL",
    "latitude": "40.41340000",
    "longitude": "19.49792000"
  },
  {
    "id": 195,
    "name": "Delvinë",
    "state_id": 634,
    "state_code": "12",
    "country_id": 3,
    "country_code": "AL",
    "latitude": "39.95111000",
    "longitude": "20.09778000"
  },
  {
    "id": 206,
    "name": "Himarë",
    "state_id": 634,
    "state_code": "12",
    "country_id": 3,
    "country_code": "AL",
    "latitude": "40.10167000",
    "longitude": "19.74472000"
  },
  {
    "id": 210,
    "name": "Konispol",
    "state_id": 634,
    "state_code": "12",
    "country_id": 3,
    "country_code": "AL",
    "latitude": "39.65889000",
    "longitude": "20.18139000"
  },
  {
    "id": 216,
    "name": "Ksamil",
    "state_id": 634,
    "state_code": "12",
    "country_id": 3,
    "country_code": "AL",
    "latitude": "39.76889000",
    "longitude": "19.99972000"
  },
  {
    "id": 233,
    "name": "Orikum",
    "state_id": 634,
    "state_code": "12",
    "country_id": 3,
    "country_code": "AL",
    "latitude": "40.32528000",
    "longitude": "19.47139000"
  },
  {
    "id": 244,
    "name": "Rrethi i Delvinës",
    "state_id": 634,
    "state_code": "12",
    "country_id": 3,
    "country_code": "AL",
    "latitude": "39.91667000",
    "longitude": "20.08333000"
  },
  {
    "id": 263,
    "name": "Sarandë",
    "state_id": 634,
    "state_code": "12",
    "country_id": 3,
    "country_code": "AL",
    "latitude": "39.87534000",
    "longitude": "20.00477000"
  },
  {
    "id": 264,
    "name": "Selenicë",
    "state_id": 634,
    "state_code": "12",
    "country_id": 3,
    "country_code": "AL",
    "latitude": "40.53056000",
    "longitude": "19.63583000"
  },
  {
    "id": 276,
    "name": "Vlorë",
    "state_id": 634,
    "state_code": "12",
    "country_id": 3,
    "country_code": "AL",
    "latitude": "40.46860000",
    "longitude": "19.48318000"
  },
  {
    "id": 31227,
    "name": "Adrar",
    "state_id": 1118,
    "state_code": "01",
    "country_id": 4,
    "country_code": "DZ",
    "latitude": "27.87429000",
    "longitude": "-0.29388000"
  },
  {
    "id": 31234,
    "name": "Aoulef",
    "state_id": 1118,
    "state_code": "01",
    "country_id": 4,
    "country_code": "DZ",
    "latitude": "26.96667000",
    "longitude": "1.08333000"
  },
  {
    "id": 31406,
    "name": "Reggane",
    "state_id": 1118,
    "state_code": "01",
    "country_id": 4,
    "country_code": "DZ",
    "latitude": "26.71576000",
    "longitude": "0.17140000"
  },
  {
    "id": 31450,
    "name": "Timimoun",
    "state_id": 1118,
    "state_code": "01",
    "country_id": 4,
    "country_code": "DZ",
    "latitude": "29.26388000",
    "longitude": "0.23098000"
  },
  {
    "id": 31243,
    "name": "Aïn Defla",
    "state_id": 1119,
    "state_code": "44",
    "country_id": 4,
    "country_code": "DZ",
    "latitude": "36.26405000",
    "longitude": "1.96790000"
  },
  {
    "id": 31325,
    "name": "El Abadia",
    "state_id": 1119,
    "state_code": "44",
    "country_id": 4,
    "country_code": "DZ",
    "latitude": "36.26951000",
    "longitude": "1.68609000"
  },
  {
    "id": 31331,
    "name": "El Attaf",
    "state_id": 1119,
    "state_code": "44",
    "country_id": 4,
    "country_code": "DZ",
    "latitude": "36.22393000",
    "longitude": "1.67187000"
  },
  {
    "id": 31361,
    "name": "Khemis Miliana",
    "state_id": 1119,
    "state_code": "44",
    "country_id": 4,
    "country_code": "DZ",
    "latitude": "36.26104000",
    "longitude": "2.22015000"
  },
  {
    "id": 31448,
    "name": "Theniet el Had",
    "state_id": 1119,
    "state_code": "44",
    "country_id": 4,
    "country_code": "DZ",
    "latitude": "35.87111000",
    "longitude": "2.02806000"
  },
  {
    "id": 31250,
    "name": "Aïn Temouchent",
    "state_id": 1122,
    "state_code": "46",
    "country_id": 4,
    "country_code": "DZ",
    "latitude": "35.29749000",
    "longitude": "-1.14037000"
  },
  {
    "id": 31265,
    "name": "Beni Saf",
    "state_id": 1122,
    "state_code": "46",
    "country_id": 4,
    "country_code": "DZ",
    "latitude": "35.30099000",
    "longitude": "-1.38226000"
  },
  {
    "id": 31329,
    "name": "El Amria",
    "state_id": 1122,
    "state_code": "46",
    "country_id": 4,
    "country_code": "DZ",
    "latitude": "35.52439000",
    "longitude": "-1.01577000"
  },
  {
    "id": 31340,
    "name": "El Malah",
    "state_id": 1122,
    "state_code": "46",
    "country_id": 4,
    "country_code": "DZ",
    "latitude": "35.39137000",
    "longitude": "-1.09238000"
  },
  {
    "id": 31351,
    "name": "Hammam Bou Hadjar",
    "state_id": 1122,
    "state_code": "46",
    "country_id": 4,
    "country_code": "DZ",
    "latitude": "35.37889000",
    "longitude": "-0.96778000"
  },
  {
    "id": 31249,
    "name": "Aïn Taya",
    "state_id": 1144,
    "state_code": "16",
    "country_id": 4,
    "country_code": "DZ",
    "latitude": "36.79333000",
    "longitude": "3.28694000"
  },
  {
    "id": 31230,
    "name": "Algiers",
    "state_id": 1144,
    "state_code": "16",
    "country_id": 4,
    "country_code": "DZ",
    "latitude": "36.73225000",
    "longitude": "3.08746000"
  },
  {
    "id": 31254,
    "name": "Bab Ezzouar",
    "state_id": 1144,
    "state_code": "16",
    "country_id": 4,
    "country_code": "DZ",
    "latitude": "36.72615000",
    "longitude": "3.18291000"
  },
  {
    "id": 31274,
    "name": "Birkhadem",
    "state_id": 1144,
    "state_code": "16",
    "country_id": 4,
    "country_code": "DZ",
    "latitude": "36.71499000",
    "longitude": "3.05002000"
  },
  {
    "id": 31281,
    "name": "Bordj el Kiffan",
    "state_id": 1144,
    "state_code": "16",
    "country_id": 4,
    "country_code": "DZ",
    "latitude": "36.74871000",
    "longitude": "3.19249000"
  },
  {
    "id": 31312,
    "name": "Dar el Beïda",
    "state_id": 1144,
    "state_code": "16",
    "country_id": 4,
    "country_code": "DZ",
    "latitude": "36.71333000",
    "longitude": "3.21250000"
  },
  {
    "id": 31413,
    "name": "Rouiba",
    "state_id": 1144,
    "state_code": "16",
    "country_id": 4,
    "country_code": "DZ",
    "latitude": "36.73829000",
    "longitude": "3.28079000"
  },
  {
    "id": 31233,
    "name": "Annaba",
    "state_id": 1103,
    "state_code": "23",
    "country_id": 4,
    "country_code": "DZ",
    "latitude": "36.90000000",
    "longitude": "7.76667000"
  },
  {
    "id": 31267,
    "name": "Berrahal",
    "state_id": 1103,
    "state_code": "23",
    "country_id": 4,
    "country_code": "DZ",
    "latitude": "36.83528000",
    "longitude": "7.45333000"
  },
  {
    "id": 31323,
    "name": "Drean",
    "state_id": 1103,
    "state_code": "23",
    "country_id": 4,
    "country_code": "DZ",
    "latitude": "36.68482000",
    "longitude": "7.75111000"
  },
  {
    "id": 31334,
    "name": "El Hadjar",
    "state_id": 1103,
    "state_code": "23",
    "country_id": 4,
    "country_code": "DZ",
    "latitude": "36.80377000",
    "longitude": "7.73684000"
  },
  {
    "id": 31251,
    "name": "Aïn Touta",
    "state_id": 1142,
    "state_code": "05",
    "country_id": 4,
    "country_code": "DZ",
    "latitude": "35.37675000",
    "longitude": "5.90001000"
  },
  {
    "id": 31237,
    "name": "Arris",
    "state_id": 1142,
    "state_code": "05",
    "country_id": 4,
    "country_code": "DZ",
    "latitude": "35.25881000",
    "longitude": "6.34706000"
  },
  {
    "id": 31257,
    "name": "Barika",
    "state_id": 1142,
    "state_code": "05",
    "country_id": 4,
    "country_code": "DZ",
    "latitude": "35.38901000",
    "longitude": "5.36584000"
  },
  {
    "id": 31258,
    "name": "Batna",
    "state_id": 1142,
    "state_code": "05",
    "country_id": 4,
    "country_code": "DZ",
    "latitude": "35.55597000",
    "longitude": "6.17414000"
  },
  {
    "id": 31292,
    "name": "Boumagueur",
    "state_id": 1142,
    "state_code": "05",
    "country_id": 4,
    "country_code": "DZ",
    "latitude": "35.50520000",
    "longitude": "5.55250000"
  },
  {
    "id": 31382,
    "name": "Merouana",
    "state_id": 1142,
    "state_code": "05",
    "country_id": 4,
    "country_code": "DZ",
    "latitude": "35.63106000",
    "longitude": "5.91186000"
  },
  {
    "id": 31415,
    "name": "Râs el Aïoun",
    "state_id": 1142,
    "state_code": "05",
    "country_id": 4,
    "country_code": "DZ",
    "latitude": "35.67384000",
    "longitude": "5.64530000"
  },
  {
    "id": 31444,
    "name": "Tazoult-Lambese",
    "state_id": 1142,
    "state_code": "05",
    "country_id": 4,
    "country_code": "DZ",
    "latitude": "35.48171000",
    "longitude": "6.26074000"
  },
  {
    "id": 31298,
    "name": "Béchar",
    "state_id": 1108,
    "state_code": "08",
    "country_id": 4,
    "country_code": "DZ",
    "latitude": "31.61667000",
    "longitude": "-2.21667000"
  },
  {
    "id": 31229,
    "name": "Akbou",
    "state_id": 1128,
    "state_code": "06",
    "country_id": 4,
    "country_code": "DZ",
    "latitude": "36.45750000",
    "longitude": "4.53494000"
  },
  {
    "id": 31231,
    "name": "Amizour",
    "state_id": 1128,
    "state_code": "06",
    "country_id": 4,
    "country_code": "DZ",
    "latitude": "36.64022000",
    "longitude": "4.90131000"
  },
  {
    "id": 31256,
    "name": "Barbacha",
    "state_id": 1128,
    "state_code": "06",
    "country_id": 4,
    "country_code": "DZ",
    "latitude": "36.56667000",
    "longitude": "4.96667000"
  },
  {
    "id": 31259,
    "name": "Bejaïa",
    "state_id": 1128,
    "state_code": "06",
    "country_id": 4,
    "country_code": "DZ",
    "latitude": "36.75587000",
    "longitude": "5.08433000"
  },
  {
    "id": 31467,
    "name": "el hed",
    "state_id": 1128,
    "state_code": "06",
    "country_id": 4,
    "country_code": "DZ",
    "latitude": "36.65000000",
    "longitude": "4.77361000"
  },
  {
    "id": 31339,
    "name": "El Kseur",
    "state_id": 1128,
    "state_code": "06",
    "country_id": 4,
    "country_code": "DZ",
    "latitude": "36.67942000",
    "longitude": "4.85550000"
  },
  {
    "id": 31344,
    "name": "Feraoun",
    "state_id": 1128,
    "state_code": "06",
    "country_id": 4,
    "country_code": "DZ",
    "latitude": "36.56041000",
    "longitude": "4.85454000"
  },
  {
    "id": 31421,
    "name": "Seddouk",
    "state_id": 1128,
    "state_code": "06",
    "country_id": 4,
    "country_code": "DZ",
    "latitude": "36.54722000",
    "longitude": "4.68611000"
  },
  {
    "id": 31275,
    "name": "Biskra",
    "state_id": 1114,
    "state_code": "07",
    "country_id": 4,
    "country_code": "DZ",
    "latitude": "34.85038000",
    "longitude": "5.72805000"
  },
  {
    "id": 31405,
    "name": "Oumache",
    "state_id": 1114,
    "state_code": "07",
    "country_id": 4,
    "country_code": "DZ",
    "latitude": "34.69292000",
    "longitude": "5.68092000"
  },
  {
    "id": 31427,
    "name": "Sidi Khaled",
    "state_id": 1114,
    "state_code": "07",
    "country_id": 4,
    "country_code": "DZ",
    "latitude": "34.38700000",
    "longitude": "4.98785000"
  },
  {
    "id": 31430,
    "name": "Sidi Okba",
    "state_id": 1114,
    "state_code": "07",
    "country_id": 4,
    "country_code": "DZ",
    "latitude": "34.74512000",
    "longitude": "5.89833000"
  },
  {
    "id": 31461,
    "name": "Tolga",
    "state_id": 1114,
    "state_code": "07",
    "country_id": 4,
    "country_code": "DZ",
    "latitude": "34.72224000",
    "longitude": "5.37845000"
  },
  {
    "id": 31466,
    "name": "Zeribet el Oued",
    "state_id": 1114,
    "state_code": "07",
    "country_id": 4,
    "country_code": "DZ",
    "latitude": "34.68284000",
    "longitude": "6.51109000"
  },
  {
    "id": 31263,
    "name": "Beni Mered",
    "state_id": 1111,
    "state_code": "09",
    "country_id": 4,
    "country_code": "DZ",
    "latitude": "36.52389000",
    "longitude": "2.86131000"
  },
  {
    "id": 31276,
    "name": "Blida",
    "state_id": 1111,
    "state_code": "09",
    "country_id": 4,
    "country_code": "DZ",
    "latitude": "36.47004000",
    "longitude": "2.82770000"
  },
  {
    "id": 31296,
    "name": "Boû Arfa",
    "state_id": 1111,
    "state_code": "09",
    "country_id": 4,
    "country_code": "DZ",
    "latitude": "36.46298000",
    "longitude": "2.81464000"
  },
  {
    "id": 31287,
    "name": "Boufarik",
    "state_id": 1111,
    "state_code": "09",
    "country_id": 4,
    "country_code": "DZ",
    "latitude": "36.57413000",
    "longitude": "2.91214000"
  },
  {
    "id": 31289,
    "name": "Bougara",
    "state_id": 1111,
    "state_code": "09",
    "country_id": 4,
    "country_code": "DZ",
    "latitude": "36.54178000",
    "longitude": "3.08100000"
  },
  {
    "id": 31290,
    "name": "Bouinan",
    "state_id": 1111,
    "state_code": "09",
    "country_id": 4,
    "country_code": "DZ",
    "latitude": "36.53167000",
    "longitude": "2.99194000"
  },
  {
    "id": 31301,
    "name": "Chebli",
    "state_id": 1111,
    "state_code": "09",
    "country_id": 4,
    "country_code": "DZ",
    "latitude": "36.57722000",
    "longitude": "3.00917000"
  },
  {
    "id": 31307,
    "name": "Chiffa",
    "state_id": 1111,
    "state_code": "09",
    "country_id": 4,
    "country_code": "DZ",
    "latitude": "36.46293000",
    "longitude": "2.73873000"
  },
  {
    "id": 31369,
    "name": "Larbaâ",
    "state_id": 1111,
    "state_code": "09",
    "country_id": 4,
    "country_code": "DZ",
    "latitude": "36.56471000",
    "longitude": "3.15434000"
  },
  {
    "id": 31377,
    "name": "Meftah",
    "state_id": 1111,
    "state_code": "09",
    "country_id": 4,
    "country_code": "DZ",
    "latitude": "36.62040000",
    "longitude": "3.22248000"
  },
  {
    "id": 31428,
    "name": "Sidi Moussa",
    "state_id": 1111,
    "state_code": "09",
    "country_id": 4,
    "country_code": "DZ",
    "latitude": "36.60637000",
    "longitude": "3.08783000"
  },
  {
    "id": 31438,
    "name": "Souma",
    "state_id": 1111,
    "state_code": "09",
    "country_id": 4,
    "country_code": "DZ",
    "latitude": "36.51833000",
    "longitude": "2.90528000"
  },
  {
    "id": 31278,
    "name": "Bordj Bou Arreridj",
    "state_id": 1116,
    "state_code": "34",
    "country_id": 4,
    "country_code": "DZ",
    "latitude": "36.07321000",
    "longitude": "4.76108000"
  },
  {
    "id": 31279,
    "name": "Bordj Ghdir",
    "state_id": 1116,
    "state_code": "34",
    "country_id": 4,
    "country_code": "DZ",
    "latitude": "35.90111000",
    "longitude": "4.89806000"
  },
  {
    "id": 31280,
    "name": "Bordj Zemoura",
    "state_id": 1116,
    "state_code": "34",
    "country_id": 4,
    "country_code": "DZ",
    "latitude": "36.27462000",
    "longitude": "4.85668000"
  },
  {
    "id": 31327,
    "name": "El Achir",
    "state_id": 1116,
    "state_code": "34",
    "country_id": 4,
    "country_code": "DZ",
    "latitude": "36.06386000",
    "longitude": "4.62744000"
  },
  {
    "id": 31373,
    "name": "Mansourah",
    "state_id": 1116,
    "state_code": "34",
    "country_id": 4,
    "country_code": "DZ",
    "latitude": "36.08725000",
    "longitude": "4.45192000"
  },
  {
    "id": 31381,
    "name": "Melouza",
    "state_id": 1116,
    "state_code": "34",
    "country_id": 4,
    "country_code": "DZ",
    "latitude": "35.97999000",
    "longitude": "4.18665000"
  },
  {
    "id": 31416,
    "name": "Râs el Oued",
    "state_id": 1116,
    "state_code": "34",
    "country_id": 4,
    "country_code": "DZ",
    "latitude": "35.94410000",
    "longitude": "5.03107000"
  },
  {
    "id": 31241,
    "name": "Aïn Bessem",
    "state_id": 1104,
    "state_code": "10",
    "country_id": 4,
    "country_code": "DZ",
    "latitude": "36.29333000",
    "longitude": "3.67319000"
  },
  {
    "id": 31295,
    "name": "Bouïra",
    "state_id": 1104,
    "state_code": "10",
    "country_id": 4,
    "country_code": "DZ",
    "latitude": "36.37489000",
    "longitude": "3.90200000"
  },
  {
    "id": 31309,
    "name": "Chorfa",
    "state_id": 1104,
    "state_code": "10",
    "country_id": 4,
    "country_code": "DZ",
    "latitude": "36.36505000",
    "longitude": "4.32636000"
  },
  {
    "id": 31322,
    "name": "Draa el Mizan",
    "state_id": 1104,
    "state_code": "10",
    "country_id": 4,
    "country_code": "DZ",
    "latitude": "36.53628000",
    "longitude": "3.83340000"
  },
  {
    "id": 31368,
    "name": "Lakhdaria",
    "state_id": 1104,
    "state_code": "10",
    "country_id": 4,
    "country_code": "DZ",
    "latitude": "36.56463000",
    "longitude": "3.59330000"
  },
  {
    "id": 31439,
    "name": "Sour el Ghozlane",
    "state_id": 1104,
    "state_code": "10",
    "country_id": 4,
    "country_code": "DZ",
    "latitude": "36.14766000",
    "longitude": "3.69123000"
  },
  {
    "id": 31235,
    "name": "Arbatache",
    "state_id": 1125,
    "state_code": "35",
    "country_id": 4,
    "country_code": "DZ",
    "latitude": "36.63773000",
    "longitude": "3.37127000"
  },
  {
    "id": 31261,
    "name": "Beni Amrane",
    "state_id": 1125,
    "state_code": "35",
    "country_id": 4,
    "country_code": "DZ",
    "latitude": "36.66774000",
    "longitude": "3.59115000"
  },
  {
    "id": 31286,
    "name": "Boudouaou",
    "state_id": 1125,
    "state_code": "35",
    "country_id": 4,
    "country_code": "DZ",
    "latitude": "36.72735000",
    "longitude": "3.40995000"
  },
  {
    "id": 31294,
    "name": "Boumerdas",
    "state_id": 1125,
    "state_code": "35",
    "country_id": 4,
    "country_code": "DZ",
    "latitude": "36.76639000",
    "longitude": "3.47717000"
  },
  {
    "id": 31299,
    "name": "Chabet el Ameur",
    "state_id": 1125,
    "state_code": "35",
    "country_id": 4,
    "country_code": "DZ",
    "latitude": "36.63709000",
    "longitude": "3.69474000"
  },
  {
    "id": 31314,
    "name": "Dellys",
    "state_id": 1125,
    "state_code": "35",
    "country_id": 4,
    "country_code": "DZ",
    "latitude": "36.91716000",
    "longitude": "3.91311000"
  },
  {
    "id": 31362,
    "name": "Khemis el Khechna",
    "state_id": 1125,
    "state_code": "35",
    "country_id": 4,
    "country_code": "DZ",
    "latitude": "36.64997000",
    "longitude": "3.33080000"
  },
  {
    "id": 31372,
    "name": "Makouda",
    "state_id": 1125,
    "state_code": "35",
    "country_id": 4,
    "country_code": "DZ",
    "latitude": "36.78567000",
    "longitude": "4.06273000"
  },
  {
    "id": 31393,
    "name": "Naciria",
    "state_id": 1125,
    "state_code": "35",
    "country_id": 4,
    "country_code": "DZ",
    "latitude": "36.74625000",
    "longitude": "3.83163000"
  },
  {
    "id": 31403,
    "name": "Ouled Moussa",
    "state_id": 1125,
    "state_code": "35",
    "country_id": 4,
    "country_code": "DZ",
    "latitude": "36.68394000",
    "longitude": "3.36661000"
  },
  {
    "id": 31407,
    "name": "Reghaïa",
    "state_id": 1125,
    "state_code": "35",
    "country_id": 4,
    "country_code": "DZ",
    "latitude": "36.73587000",
    "longitude": "3.34018000"
  },
  {
    "id": 31441,
    "name": "Tadmaït",
    "state_id": 1125,
    "state_code": "35",
    "country_id": 4,
    "country_code": "DZ",
    "latitude": "36.74413000",
    "longitude": "3.90045000"
  },
  {
    "id": 31447,
    "name": "Thenia",
    "state_id": 1125,
    "state_code": "35",
    "country_id": 4,
    "country_code": "DZ",
    "latitude": "36.72544000",
    "longitude": "3.55665000"
  },
  {
    "id": 31456,
    "name": "Tizi Gheniff",
    "state_id": 1125,
    "state_code": "35",
    "country_id": 4,
    "country_code": "DZ",
    "latitude": "36.58839000",
    "longitude": "3.77445000"
  },
  {
    "id": 31226,
    "name": "Abou el Hassan",
    "state_id": 1105,
    "state_code": "02",
    "country_id": 4,
    "country_code": "DZ",
    "latitude": "36.41657000",
    "longitude": "1.19616000"
  },
  {
    "id": 31291,
    "name": "Boukadir",
    "state_id": 1105,
    "state_code": "02",
    "country_id": 4,
    "country_code": "DZ",
    "latitude": "36.06629000",
    "longitude": "1.12602000"
  },
  {
    "id": 31308,
    "name": "Chlef",
    "state_id": 1105,
    "state_code": "02",
    "country_id": 4,
    "country_code": "DZ",
    "latitude": "36.16525000",
    "longitude": "1.33452000"
  },
  {
    "id": 31324,
    "name": "Ech Chettia",
    "state_id": 1105,
    "state_code": "02",
    "country_id": 4,
    "country_code": "DZ",
    "latitude": "36.19591000",
    "longitude": "1.25537000"
  },
  {
    "id": 31397,
    "name": "Oued Fodda",
    "state_id": 1105,
    "state_code": "02",
    "country_id": 4,
    "country_code": "DZ",
    "latitude": "36.18503000",
    "longitude": "1.53299000"
  },
  {
    "id": 31399,
    "name": "Oued Sly",
    "state_id": 1105,
    "state_code": "02",
    "country_id": 4,
    "country_code": "DZ",
    "latitude": "36.10124000",
    "longitude": "1.19949000"
  },
  {
    "id": 31424,
    "name": "Sidi Akkacha",
    "state_id": 1105,
    "state_code": "02",
    "country_id": 4,
    "country_code": "DZ",
    "latitude": "36.46472000",
    "longitude": "1.30258000"
  },
  {
    "id": 31469,
    "name": "’Aïn Abid",
    "state_id": 1121,
    "state_code": "25",
    "country_id": 4,
    "country_code": "DZ",
    "latitude": "36.23194000",
    "longitude": "6.94333000"
  },
  {
    "id": 31248,
    "name": "Aïn Smara",
    "state_id": 1121,
    "state_code": "25",
    "country_id": 4,
    "country_code": "DZ",
    "latitude": "36.26740000",
    "longitude": "6.50135000"
  },
  {
    "id": 31310,
    "name": "Constantine",
    "state_id": 1121,
    "state_code": "25",
    "country_id": 4,
    "country_code": "DZ",
    "latitude": "36.36500000",
    "longitude": "6.61472000"
  },
  {
    "id": 31315,
    "name": "Didouche Mourad",
    "state_id": 1121,
    "state_code": "25",
    "country_id": 4,
    "country_code": "DZ",
    "latitude": "36.45250000",
    "longitude": "6.63639000"
  },
  {
    "id": 31338,
    "name": "El Khroub",
    "state_id": 1121,
    "state_code": "25",
    "country_id": 4,
    "country_code": "DZ",
    "latitude": "36.26333000",
    "longitude": "6.69361000"
  },
  {
    "id": 31350,
    "name": "Hamma Bouziane",
    "state_id": 1121,
    "state_code": "25",
    "country_id": 4,
    "country_code": "DZ",
    "latitude": "36.41205000",
    "longitude": "6.59603000"
  },
  {
    "id": 31474,
    "name": "’Aïn el Bell",
    "state_id": 1098,
    "state_code": "17",
    "country_id": 4,
    "country_code": "DZ",
    "latitude": "34.34381000",
    "longitude": "3.22475000"
  },
  {
    "id": 31246,
    "name": "Aïn Oussera",
    "state_id": 1098,
    "state_code": "17",
    "country_id": 4,
    "country_code": "DZ",
    "latitude": "35.45139000",
    "longitude": "2.90583000"
  },
  {
    "id": 31273,
    "name": "Birine",
    "state_id": 1098,
    "state_code": "17",
    "country_id": 4,
    "country_code": "DZ",
    "latitude": "35.63500000",
    "longitude": "3.22500000"
  },
  {
    "id": 31300,
    "name": "Charef",
    "state_id": 1098,
    "state_code": "17",
    "country_id": 4,
    "country_code": "DZ",
    "latitude": "34.62098000",
    "longitude": "2.79503000"
  },
  {
    "id": 31311,
    "name": "Dar Chioukh",
    "state_id": 1098,
    "state_code": "17",
    "country_id": 4,
    "country_code": "DZ",
    "latitude": "34.89638000",
    "longitude": "3.48543000"
  },
  {
    "id": 31318,
    "name": "Djelfa",
    "state_id": 1098,
    "state_code": "17",
    "country_id": 4,
    "country_code": "DZ",
    "latitude": "34.67279000",
    "longitude": "3.26300000"
  },
  {
    "id": 31336,
    "name": "El Idrissia",
    "state_id": 1098,
    "state_code": "17",
    "country_id": 4,
    "country_code": "DZ",
    "latitude": "34.44542000",
    "longitude": "2.52749000"
  },
  {
    "id": 31385,
    "name": "Messaad",
    "state_id": 1098,
    "state_code": "17",
    "country_id": 4,
    "country_code": "DZ",
    "latitude": "34.15429000",
    "longitude": "3.50309000"
  },
  {
    "id": 31297,
    "name": "Brezina",
    "state_id": 1129,
    "state_code": "32",
    "country_id": 4,
    "country_code": "DZ",
    "latitude": "33.09892000",
    "longitude": "1.26082000"
  },
  {
    "id": 31326,
    "name": "El Abiodh Sidi Cheikh",
    "state_id": 1129,
    "state_code": "32",
    "country_id": 4,
    "country_code": "DZ",
    "latitude": "32.89300000",
    "longitude": "0.54839000"
  },
  {
    "id": 31332,
    "name": "El Bayadh",
    "state_id": 1129,
    "state_code": "32",
    "country_id": 4,
    "country_code": "DZ",
    "latitude": "33.68318000",
    "longitude": "1.01927000"
  },
  {
    "id": 31313,
    "name": "Debila",
    "state_id": 1099,
    "state_code": "39",
    "country_id": 4,
    "country_code": "DZ",
    "latitude": "33.51667000",
    "longitude": "6.95000000"
  },
  {
    "id": 31341,
    "name": "El Oued",
    "state_id": 1099,
    "state_code": "39",
    "country_id": 4,
    "country_code": "DZ",
    "latitude": "33.35608000",
    "longitude": "6.86319000"
  },
  {
    "id": 31408,
    "name": "Reguiba",
    "state_id": 1099,
    "state_code": "39",
    "country_id": 4,
    "country_code": "DZ",
    "latitude": "33.56391000",
    "longitude": "6.70326000"
  },
  {
    "id": 31411,
    "name": "Robbah",
    "state_id": 1099,
    "state_code": "39",
    "country_id": 4,
    "country_code": "DZ",
    "latitude": "33.27967000",
    "longitude": "6.90984000"
  },
  {
    "id": 31260,
    "name": "Ben Mehidi",
    "state_id": 1100,
    "state_code": "36",
    "country_id": 4,
    "country_code": "DZ",
    "latitude": "36.76967000",
    "longitude": "7.90641000"
  },
  {
    "id": 31270,
    "name": "Besbes",
    "state_id": 1100,
    "state_code": "36",
    "country_id": 4,
    "country_code": "DZ",
    "latitude": "36.70222000",
    "longitude": "7.84722000"
  },
  {
    "id": 31337,
    "name": "El Kala",
    "state_id": 1100,
    "state_code": "36",
    "country_id": 4,
    "country_code": "DZ",
    "latitude": "36.89556000",
    "longitude": "8.44333000"
  },
  {
    "id": 31342,
    "name": "El Tarf",
    "state_id": 1100,
    "state_code": "36",
    "country_id": 4,
    "country_code": "DZ",
    "latitude": "36.76720000",
    "longitude": "8.31377000"
  },
  {
    "id": 31268,
    "name": "Berriane",
    "state_id": 1127,
    "state_code": "47",
    "country_id": 4,
    "country_code": "DZ",
    "latitude": "32.82648000",
    "longitude": "3.76689000"
  },
  {
    "id": 31347,
    "name": "Ghardaïa",
    "state_id": 1127,
    "state_code": "47",
    "country_id": 4,
    "country_code": "DZ",
    "latitude": "32.49094000",
    "longitude": "3.67347000"
  },
  {
    "id": 31386,
    "name": "Metlili Chaamba",
    "state_id": 1127,
    "state_code": "47",
    "country_id": 4,
    "country_code": "DZ",
    "latitude": "32.26667000",
    "longitude": "3.63333000"
  },
  {
    "id": 31293,
    "name": "Boumahra Ahmed",
    "state_id": 1137,
    "state_code": "24",
    "country_id": 4,
    "country_code": "DZ",
    "latitude": "36.45833000",
    "longitude": "7.51389000"
  },
  {
    "id": 31348,
    "name": "Guelma",
    "state_id": 1137,
    "state_code": "24",
    "country_id": 4,
    "country_code": "DZ",
    "latitude": "36.46214000",
    "longitude": "7.42608000"
  },
  {
    "id": 31355,
    "name": "Héliopolis",
    "state_id": 1137,
    "state_code": "24",
    "country_id": 4,
    "country_code": "DZ",
    "latitude": "36.50361000",
    "longitude": "7.44278000"
  },
  {
    "id": 31358,
    "name": "Illizi",
    "state_id": 1112,
    "state_code": "33",
    "country_id": 4,
    "country_code": "DZ",
    "latitude": "26.48333000",
    "longitude": "8.46667000"
  },
  {
    "id": 31359,
    "name": "Jijel",
    "state_id": 1113,
    "state_code": "18",
    "country_id": 4,
    "country_code": "DZ",
    "latitude": "36.82055000",
    "longitude": "5.76671000"
  },
  {
    "id": 31363,
    "name": "Khenchela",
    "state_id": 1126,
    "state_code": "40",
    "country_id": 4,
    "country_code": "DZ",
    "latitude": "35.43583000",
    "longitude": "7.14333000"
  },
  {
    "id": 31228,
    "name": "Aflou",
    "state_id": 1138,
    "state_code": "03",
    "country_id": 4,
    "country_code": "DZ",
    "latitude": "34.11279000",
    "longitude": "2.10228000"
  },
  {
    "id": 31367,
    "name": "Laghouat",
    "state_id": 1138,
    "state_code": "03",
    "country_id": 4,
    "country_code": "DZ",
    "latitude": "33.80000000",
    "longitude": "2.86514000"
  },
  {
    "id": 31468,
    "name": "‘Aïn el Hadjel",
    "state_id": 1134,
    "state_code": "28",
    "country_id": 4,
    "country_code": "DZ",
    "latitude": "35.67003000",
    "longitude": "3.88153000"
  },
  {
    "id": 31477,
    "name": "’Aïn el Melh",
    "state_id": 1134,
    "state_code": "28",
    "country_id": 4,
    "country_code": "DZ",
    "latitude": "34.84146000",
    "longitude": "4.16383000"
  },
  {
    "id": 31391,
    "name": "M’Sila",
    "state_id": 1134,
    "state_code": "28",
    "country_id": 4,
    "country_code": "DZ",
    "latitude": "35.70583000",
    "longitude": "4.54194000"
  },
  {
    "id": 31426,
    "name": "Sidi Aïssa",
    "state_id": 1134,
    "state_code": "28",
    "country_id": 4,
    "country_code": "DZ",
    "latitude": "35.88548000",
    "longitude": "3.77236000"
  },
  {
    "id": 31282,
    "name": "Bou Hanifia el Hamamat",
    "state_id": 1124,
    "state_code": "29",
    "country_id": 4,
    "country_code": "DZ",
    "latitude": "35.31473000",
    "longitude": "-0.05037000"
  },
  {
    "id": 31375,
    "name": "Mascara",
    "state_id": 1124,
    "state_code": "29",
    "country_id": 4,
    "country_code": "DZ",
    "latitude": "35.39664000",
    "longitude": "0.14027000"
  },
  {
    "id": 31400,
    "name": "Oued el Abtal",
    "state_id": 1124,
    "state_code": "29",
    "country_id": 4,
    "country_code": "DZ",
    "latitude": "35.45595000",
    "longitude": "0.68778000"
  },
  {
    "id": 31433,
    "name": "Sig",
    "state_id": 1124,
    "state_code": "29",
    "country_id": 4,
    "country_code": "DZ",
    "latitude": "35.52832000",
    "longitude": "-0.19369000"
  },
  {
    "id": 31471,
    "name": "’Aïn Boucif",
    "state_id": 1109,
    "state_code": "26",
    "country_id": 4,
    "country_code": "DZ",
    "latitude": "35.89123000",
    "longitude": "3.15850000"
  },
  {
    "id": 31269,
    "name": "Berrouaghia",
    "state_id": 1109,
    "state_code": "26",
    "country_id": 4,
    "country_code": "DZ",
    "latitude": "36.13516000",
    "longitude": "2.91085000"
  },
  {
    "id": 31366,
    "name": "Ksar el Boukhari",
    "state_id": 1109,
    "state_code": "26",
    "country_id": 4,
    "country_code": "DZ",
    "latitude": "35.88889000",
    "longitude": "2.74905000"
  },
  {
    "id": 31390,
    "name": "Médéa",
    "state_id": 1109,
    "state_code": "26",
    "country_id": 4,
    "country_code": "DZ",
    "latitude": "36.26417000",
    "longitude": "2.75393000"
  },
  {
    "id": 31302,
    "name": "Chelghoum el Aïd",
    "state_id": 1132,
    "state_code": "43",
    "country_id": 4,
    "country_code": "DZ",
    "latitude": "36.16286000",
    "longitude": "6.16651000"
  },
  {
    "id": 31387,
    "name": "Mila",
    "state_id": 1132,
    "state_code": "43",
    "country_id": 4,
    "country_code": "DZ",
    "latitude": "36.45028000",
    "longitude": "6.26444000"
  },
  {
    "id": 31412,
    "name": "Rouached",
    "state_id": 1132,
    "state_code": "43",
    "country_id": 4,
    "country_code": "DZ",
    "latitude": "36.45774000",
    "longitude": "6.04267000"
  },
  {
    "id": 31429,
    "name": "Sidi Mérouane",
    "state_id": 1132,
    "state_code": "43",
    "country_id": 4,
    "country_code": "DZ",
    "latitude": "36.52056000",
    "longitude": "6.26111000"
  },
  {
    "id": 31446,
    "name": "Telerghma",
    "state_id": 1132,
    "state_code": "43",
    "country_id": 4,
    "country_code": "DZ",
    "latitude": "36.11653000",
    "longitude": "6.35434000"
  },
  {
    "id": 31388,
    "name": "Mostaganem",
    "state_id": 1140,
    "state_code": "27",
    "country_id": 4,
    "country_code": "DZ",
    "latitude": "35.93115000",
    "longitude": "0.08918000"
  },
  {
    "id": 31247,
    "name": "Aïn Sefra",
    "state_id": 1102,
    "state_code": "45",
    "country_id": 4,
    "country_code": "DZ",
    "latitude": "32.75000000",
    "longitude": "-0.58333000"
  },
  {
    "id": 31392,
    "name": "Naama",
    "state_id": 1102,
    "state_code": "45",
    "country_id": 4,
    "country_code": "DZ",
    "latitude": "33.26667000",
    "longitude": "-0.31667000"
  },
  {
    "id": 31478,
    "name": "’Aïn el Turk",
    "state_id": 1101,
    "state_code": "31",
    "country_id": 4,
    "country_code": "DZ",
    "latitude": "35.74381000",
    "longitude": "-0.76930000"
  },
  {
    "id": 31252,
    "name": "Aïn el Bya",
    "state_id": 1101,
    "state_code": "31",
    "country_id": 4,
    "country_code": "DZ",
    "latitude": "35.80389000",
    "longitude": "-0.30178000"
  },
  {
    "id": 31272,
    "name": "Bir el Djir",
    "state_id": 1101,
    "state_code": "31",
    "country_id": 4,
    "country_code": "DZ",
    "latitude": "35.72000000",
    "longitude": "-0.54500000"
  },
  {
    "id": 31284,
    "name": "Bou Tlelis",
    "state_id": 1101,
    "state_code": "31",
    "country_id": 4,
    "country_code": "DZ",
    "latitude": "35.57272000",
    "longitude": "-0.89960000"
  },
  {
    "id": 31343,
    "name": "Es Senia",
    "state_id": 1101,
    "state_code": "31",
    "country_id": 4,
    "country_code": "DZ",
    "latitude": "35.64779000",
    "longitude": "-0.62397000"
  },
  {
    "id": 31383,
    "name": "Mers el Kebir",
    "state_id": 1101,
    "state_code": "31",
    "country_id": 4,
    "country_code": "DZ",
    "latitude": "35.72790000",
    "longitude": "-0.70810000"
  },
  {
    "id": 31395,
    "name": "Oran",
    "state_id": 1101,
    "state_code": "31",
    "country_id": 4,
    "country_code": "DZ",
    "latitude": "35.69906000",
    "longitude": "-0.63588000"
  },
  {
    "id": 31432,
    "name": "Sidi ech Chahmi",
    "state_id": 1101,
    "state_code": "31",
    "country_id": 4,
    "country_code": "DZ",
    "latitude": "35.65903000",
    "longitude": "-0.52168000"
  },
  {
    "id": 31316,
    "name": "Djamaa",
    "state_id": 1139,
    "state_code": "30",
    "country_id": 4,
    "country_code": "DZ",
    "latitude": "33.53388000",
    "longitude": "5.99306000"
  },
  {
    "id": 31335,
    "name": "El Hadjira",
    "state_id": 1139,
    "state_code": "30",
    "country_id": 4,
    "country_code": "DZ",
    "latitude": "32.61336000",
    "longitude": "5.51259000"
  },
  {
    "id": 31353,
    "name": "Hassi Messaoud",
    "state_id": 1139,
    "state_code": "30",
    "country_id": 4,
    "country_code": "DZ",
    "latitude": "31.68041000",
    "longitude": "6.07286000"
  },
  {
    "id": 31378,
    "name": "Megarine",
    "state_id": 1139,
    "state_code": "30",
    "country_id": 4,
    "country_code": "DZ",
    "latitude": "33.19195000",
    "longitude": "6.08695000"
  },
  {
    "id": 31396,
    "name": "Ouargla",
    "state_id": 1139,
    "state_code": "30",
    "country_id": 4,
    "country_code": "DZ",
    "latitude": "31.94932000",
    "longitude": "5.32502000"
  },
  {
    "id": 31414,
    "name": "Rouissat",
    "state_id": 1139,
    "state_code": "30",
    "country_id": 4,
    "country_code": "DZ",
    "latitude": "31.92427000",
    "longitude": "5.35018000"
  },
  {
    "id": 31425,
    "name": "Sidi Amrane",
    "state_id": 1139,
    "state_code": "30",
    "country_id": 4,
    "country_code": "DZ",
    "latitude": "33.49885000",
    "longitude": "6.00803000"
  },
  {
    "id": 31445,
    "name": "Tebesbest",
    "state_id": 1139,
    "state_code": "30",
    "country_id": 4,
    "country_code": "DZ",
    "latitude": "33.11667000",
    "longitude": "6.08333000"
  },
  {
    "id": 31462,
    "name": "Touggourt",
    "state_id": 1139,
    "state_code": "30",
    "country_id": 4,
    "country_code": "DZ",
    "latitude": "33.10527000",
    "longitude": "6.05796000"
  },
  {
    "id": 31242,
    "name": "Aïn Beïda",
    "state_id": 1136,
    "state_code": "04",
    "country_id": 4,
    "country_code": "DZ",
    "latitude": "35.79639000",
    "longitude": "7.39278000"
  },
  {
    "id": 31244,
    "name": "Aïn Fakroun",
    "state_id": 1136,
    "state_code": "04",
    "country_id": 4,
    "country_code": "DZ",
    "latitude": "35.97108000",
    "longitude": "6.87374000"
  },
  {
    "id": 31245,
    "name": "Aïn Kercha",
    "state_id": 1136,
    "state_code": "04",
    "country_id": 4,
    "country_code": "DZ",
    "latitude": "35.92472000",
    "longitude": "6.69528000"
  },
  {
    "id": 31330,
    "name": "El Aouinet",
    "state_id": 1136,
    "state_code": "04",
    "country_id": 4,
    "country_code": "DZ",
    "latitude": "35.86691000",
    "longitude": "7.88673000"
  },
  {
    "id": 31384,
    "name": "Meskiana",
    "state_id": 1136,
    "state_code": "04",
    "country_id": 4,
    "country_code": "DZ",
    "latitude": "35.63058000",
    "longitude": "7.66606000"
  },
  {
    "id": 31404,
    "name": "Oum el Bouaghi",
    "state_id": 1136,
    "state_code": "04",
    "country_id": 4,
    "country_code": "DZ",
    "latitude": "35.87541000",
    "longitude": "7.11353000"
  },
  {
    "id": 31473,
    "name": "’Aïn Merane",
    "state_id": 1130,
    "state_code": "48",
    "country_id": 4,
    "country_code": "DZ",
    "latitude": "36.16277000",
    "longitude": "0.97037000"
  },
  {
    "id": 31232,
    "name": "Ammi Moussa",
    "state_id": 1130,
    "state_code": "48",
    "country_id": 4,
    "country_code": "DZ",
    "latitude": "35.86781000",
    "longitude": "1.11143000"
  },
  {
    "id": 31319,
    "name": "Djidiouia",
    "state_id": 1130,
    "state_code": "48",
    "country_id": 4,
    "country_code": "DZ",
    "latitude": "35.92989000",
    "longitude": "0.82871000"
  },
  {
    "id": 31376,
    "name": "Mazouna",
    "state_id": 1130,
    "state_code": "48",
    "country_id": 4,
    "country_code": "DZ",
    "latitude": "36.12232000",
    "longitude": "0.89865000"
  },
  {
    "id": 31398,
    "name": "Oued Rhiou",
    "state_id": 1130,
    "state_code": "48",
    "country_id": 4,
    "country_code": "DZ",
    "latitude": "35.96124000",
    "longitude": "0.91896000"
  },
  {
    "id": 31409,
    "name": "Relizane",
    "state_id": 1130,
    "state_code": "48",
    "country_id": 4,
    "country_code": "DZ",
    "latitude": "35.73734000",
    "longitude": "0.55599000"
  },
  {
    "id": 31435,
    "name": "Smala",
    "state_id": 1130,
    "state_code": "48",
    "country_id": 4,
    "country_code": "DZ",
    "latitude": "35.71652000",
    "longitude": "0.75437000"
  },
  {
    "id": 31464,
    "name": "Zemoura",
    "state_id": 1130,
    "state_code": "48",
    "country_id": 4,
    "country_code": "DZ",
    "latitude": "35.72251000",
    "longitude": "0.75509000"
  },
  {
    "id": 31475,
    "name": "’Aïn el Hadjar",
    "state_id": 1123,
    "state_code": "20",
    "country_id": 4,
    "country_code": "DZ",
    "latitude": "34.75846000",
    "longitude": "0.14528000"
  },
  {
    "id": 31419,
    "name": "Saïda",
    "state_id": 1123,
    "state_code": "20",
    "country_id": 4,
    "country_code": "DZ",
    "latitude": "34.83033000",
    "longitude": "0.15171000"
  },
  {
    "id": 31240,
    "name": "Aïn Arnat",
    "state_id": 1141,
    "state_code": "19",
    "country_id": 4,
    "country_code": "DZ",
    "latitude": "36.18683000",
    "longitude": "5.31347000"
  },
  {
    "id": 31253,
    "name": "BABOR - VILLE",
    "state_id": 1141,
    "state_code": "19",
    "country_id": 4,
    "country_code": "DZ",
    "latitude": "36.48994000",
    "longitude": "5.53930000"
  },
  {
    "id": 31288,
    "name": "Bougaa",
    "state_id": 1141,
    "state_code": "19",
    "country_id": 4,
    "country_code": "DZ",
    "latitude": "36.33293000",
    "longitude": "5.08843000"
  },
  {
    "id": 31333,
    "name": "El Eulma",
    "state_id": 1141,
    "state_code": "19",
    "country_id": 4,
    "country_code": "DZ",
    "latitude": "36.15281000",
    "longitude": "5.69016000"
  },
  {
    "id": 31417,
    "name": "Salah Bey",
    "state_id": 1141,
    "state_code": "19",
    "country_id": 4,
    "country_code": "DZ",
    "latitude": "35.85451000",
    "longitude": "5.29053000"
  },
  {
    "id": 31440,
    "name": "Sétif",
    "state_id": 1141,
    "state_code": "19",
    "country_id": 4,
    "country_code": "DZ",
    "latitude": "36.19112000",
    "longitude": "5.41373000"
  },
  {
    "id": 146185,
    "name": "Aïn El Berd District",
    "state_id": 4902,
    "state_code": "22",
    "country_id": 4,
    "country_code": "DZ",
    "latitude": "35.35000000",
    "longitude": "-0.51667000"
  },
  {
    "id": 146186,
    "name": "Balidat Ameur",
    "state_id": 4902,
    "state_code": "22",
    "country_id": 4,
    "country_code": "DZ",
    "latitude": "32.95138900",
    "longitude": "5.98055600"
  },
  {
    "id": 146187,
    "name": "Belarbi",
    "state_id": 4902,
    "state_code": "22",
    "country_id": 4,
    "country_code": "DZ",
    "latitude": "35.15149480",
    "longitude": "-0.45679090"
  },
  {
    "id": 146188,
    "name": "Ben Badis, Sid Bel Abbés",
    "state_id": 4902,
    "state_code": "22",
    "country_id": 4,
    "country_code": "DZ",
    "latitude": "34.95277778",
    "longitude": "-0.91444444"
  },
  {
    "id": 146189,
    "name": "Djamaa",
    "state_id": 4902,
    "state_code": "22",
    "country_id": 4,
    "country_code": "DZ",
    "latitude": "33.53137870",
    "longitude": "5.99098210"
  },
  {
    "id": 146190,
    "name": "El Bour",
    "state_id": 4902,
    "state_code": "22",
    "country_id": 4,
    "country_code": "DZ",
    "latitude": "32.16305556",
    "longitude": "5.34527778"
  },
  {
    "id": 146191,
    "name": "El Hadjira",
    "state_id": 4902,
    "state_code": "22",
    "country_id": 4,
    "country_code": "DZ",
    "latitude": "32.61666667",
    "longitude": "5.51666667"
  },
  {
    "id": 146192,
    "name": "Haoud El Hamra",
    "state_id": 4902,
    "state_code": "22",
    "country_id": 4,
    "country_code": "DZ",
    "latitude": "31.88944444",
    "longitude": "5.97305556"
  },
  {
    "id": 146193,
    "name": "Hassi Messaoud",
    "state_id": 4902,
    "state_code": "22",
    "country_id": 4,
    "country_code": "DZ",
    "latitude": "31.70000000",
    "longitude": "6.06666667"
  },
  {
    "id": 146194,
    "name": "Lamtar",
    "state_id": 4902,
    "state_code": "22",
    "country_id": 4,
    "country_code": "DZ",
    "latitude": "35.07062700",
    "longitude": "-0.79814000"
  },
  {
    "id": 146195,
    "name": "Marhoum",
    "state_id": 4902,
    "state_code": "22",
    "country_id": 4,
    "country_code": "DZ",
    "latitude": "34.44600420",
    "longitude": "-0.19502440"
  },
  {
    "id": 146196,
    "name": "Megarine",
    "state_id": 4902,
    "state_code": "22",
    "country_id": 4,
    "country_code": "DZ",
    "latitude": "33.19262320",
    "longitude": "6.09346390"
  },
  {
    "id": 146197,
    "name": "Merine",
    "state_id": 4902,
    "state_code": "22",
    "country_id": 4,
    "country_code": "DZ",
    "latitude": "34.78074720",
    "longitude": "-0.45104030"
  },
  {
    "id": 146198,
    "name": "Mezaourou",
    "state_id": 4902,
    "state_code": "22",
    "country_id": 4,
    "country_code": "DZ",
    "latitude": "34.81732670",
    "longitude": "-0.62331890"
  },
  {
    "id": 146199,
    "name": "Moggar",
    "state_id": 4902,
    "state_code": "22",
    "country_id": 4,
    "country_code": "DZ",
    "latitude": "33.26722222",
    "longitude": "6.06777778"
  },
  {
    "id": 146200,
    "name": "Moulay Slissen",
    "state_id": 4902,
    "state_code": "22",
    "country_id": 4,
    "country_code": "DZ",
    "latitude": "34.81666667",
    "longitude": "-0.76666667"
  },
  {
    "id": 146201,
    "name": "N'Goussa",
    "state_id": 4902,
    "state_code": "22",
    "country_id": 4,
    "country_code": "DZ",
    "latitude": "32.14087970",
    "longitude": "5.30828480"
  },
  {
    "id": 146202,
    "name": "Ouargla",
    "state_id": 4902,
    "state_code": "22",
    "country_id": 4,
    "country_code": "DZ",
    "latitude": "31.95000000",
    "longitude": "5.31666667"
  },
  {
    "id": 146203,
    "name": "Rouissat",
    "state_id": 4902,
    "state_code": "22",
    "country_id": 4,
    "country_code": "DZ",
    "latitude": "31.93657600",
    "longitude": "5.33540730"
  },
  {
    "id": 146204,
    "name": "Sfissef",
    "state_id": 4902,
    "state_code": "22",
    "country_id": 4,
    "country_code": "DZ",
    "latitude": "35.23440280",
    "longitude": "-0.24341580"
  },
  {
    "id": 146205,
    "name": "Sidi Ali Boussidi",
    "state_id": 4902,
    "state_code": "22",
    "country_id": 4,
    "country_code": "DZ",
    "latitude": "35.10000000",
    "longitude": "-0.83333333"
  },
  {
    "id": 146206,
    "name": "Sidi Amrane",
    "state_id": 4902,
    "state_code": "22",
    "country_id": 4,
    "country_code": "DZ",
    "latitude": "33.50000000",
    "longitude": "6.01666667"
  },
  {
    "id": 146207,
    "name": "Sidi Bel Abbès",
    "state_id": 4902,
    "state_code": "22",
    "country_id": 4,
    "country_code": "DZ",
    "latitude": "35.20000000",
    "longitude": "-0.63333333"
  },
  {
    "id": 146208,
    "name": "Sidi Brahim",
    "state_id": 4902,
    "state_code": "22",
    "country_id": 4,
    "country_code": "DZ",
    "latitude": "35.26055600",
    "longitude": "-0.56750000"
  },
  {
    "id": 146209,
    "name": "Sidi Hamadouche",
    "state_id": 4902,
    "state_code": "22",
    "country_id": 4,
    "country_code": "DZ",
    "latitude": "35.29916667",
    "longitude": "-0.54888889"
  },
  {
    "id": 146210,
    "name": "Sidi Slimane",
    "state_id": 4902,
    "state_code": "22",
    "country_id": 4,
    "country_code": "DZ",
    "latitude": "33.28861111",
    "longitude": "6.09472222"
  },
  {
    "id": 146211,
    "name": "Sidi Yacoub",
    "state_id": 4902,
    "state_code": "22",
    "country_id": 4,
    "country_code": "DZ",
    "latitude": "35.13333333",
    "longitude": "-0.78333333"
  },
  {
    "id": 146212,
    "name": "Sidi Yahia",
    "state_id": 4902,
    "state_code": "22",
    "country_id": 4,
    "country_code": "DZ",
    "latitude": "33.52166667",
    "longitude": "5.94555556"
  },
  {
    "id": 146213,
    "name": "Tabia, Sid Bel Abbés",
    "state_id": 4902,
    "state_code": "22",
    "country_id": 4,
    "country_code": "DZ",
    "latitude": "35.01783660",
    "longitude": "-0.73385240"
  },
  {
    "id": 146214,
    "name": "Taibet",
    "state_id": 4902,
    "state_code": "22",
    "country_id": 4,
    "country_code": "DZ",
    "latitude": "33.08391890",
    "longitude": "6.39996530"
  },
  {
    "id": 146215,
    "name": "Tamellaht",
    "state_id": 4902,
    "state_code": "22",
    "country_id": 4,
    "country_code": "DZ",
    "latitude": "33.01190000",
    "longitude": "6.00972000"
  },
  {
    "id": 146216,
    "name": "Tamerna Djedida",
    "state_id": 4902,
    "state_code": "22",
    "country_id": 4,
    "country_code": "DZ",
    "latitude": "33.44640000",
    "longitude": "5.95639000"
  },
  {
    "id": 146217,
    "name": "Tebesbest",
    "state_id": 4902,
    "state_code": "22",
    "country_id": 4,
    "country_code": "DZ",
    "latitude": "33.12001290",
    "longitude": "6.08007430"
  },
  {
    "id": 146218,
    "name": "Teghalimet",
    "state_id": 4902,
    "state_code": "22",
    "country_id": 4,
    "country_code": "DZ",
    "latitude": "34.88283300",
    "longitude": "-0.56000230"
  },
  {
    "id": 146219,
    "name": "Telagh",
    "state_id": 4902,
    "state_code": "22",
    "country_id": 4,
    "country_code": "DZ",
    "latitude": "34.78490640",
    "longitude": "-0.57317730"
  },
  {
    "id": 146220,
    "name": "Tenezara",
    "state_id": 4902,
    "state_code": "22",
    "country_id": 4,
    "country_code": "DZ",
    "latitude": "34.96341170",
    "longitude": "-0.61446190"
  },
  {
    "id": 146221,
    "name": "Tenira",
    "state_id": 4902,
    "state_code": "22",
    "country_id": 4,
    "country_code": "DZ",
    "latitude": "35.01966420",
    "longitude": "-0.53206440"
  },
  {
    "id": 146222,
    "name": "Tessala",
    "state_id": 4902,
    "state_code": "22",
    "country_id": 4,
    "country_code": "DZ",
    "latitude": "35.24300000",
    "longitude": "-0.77316300"
  },
  {
    "id": 146223,
    "name": "Touggourt",
    "state_id": 4902,
    "state_code": "22",
    "country_id": 4,
    "country_code": "DZ",
    "latitude": "33.10000000",
    "longitude": "6.06666667"
  },
  {
    "id": 146224,
    "name": "Zerouala",
    "state_id": 4902,
    "state_code": "22",
    "country_id": 4,
    "country_code": "DZ",
    "latitude": "35.24232450",
    "longitude": "-0.52219390"
  },
  {
    "id": 31239,
    "name": "Azzaba",
    "state_id": 1110,
    "state_code": "21",
    "country_id": 4,
    "country_code": "DZ",
    "latitude": "36.73944000",
    "longitude": "7.10528000"
  },
  {
    "id": 31360,
    "name": "Karkira",
    "state_id": 1110,
    "state_code": "21",
    "country_id": 4,
    "country_code": "DZ",
    "latitude": "36.92917000",
    "longitude": "6.58556000"
  },
  {
    "id": 31434,
    "name": "Skikda",
    "state_id": 1110,
    "state_code": "21",
    "country_id": 4,
    "country_code": "DZ",
    "latitude": "36.87617000",
    "longitude": "6.90921000"
  },
  {
    "id": 31442,
    "name": "Tamalous",
    "state_id": 1110,
    "state_code": "21",
    "country_id": 4,
    "country_code": "DZ",
    "latitude": "36.83763000",
    "longitude": "6.64018000"
  },
  {
    "id": 31422,
    "name": "Sedrata",
    "state_id": 1143,
    "state_code": "41",
    "country_id": 4,
    "country_code": "DZ",
    "latitude": "36.12868000",
    "longitude": "7.53376000"
  },
  {
    "id": 31437,
    "name": "Souk Ahras",
    "state_id": 1143,
    "state_code": "41",
    "country_id": 4,
    "country_code": "DZ",
    "latitude": "36.28639000",
    "longitude": "7.95111000"
  },
  {
    "id": 31356,
    "name": "I-n-Salah",
    "state_id": 1135,
    "state_code": "11",
    "country_id": 4,
    "country_code": "DZ",
    "latitude": "27.19351000",
    "longitude": "2.46069000"
  },
  {
    "id": 31443,
    "name": "Tamanrasset",
    "state_id": 1135,
    "state_code": "11",
    "country_id": 4,
    "country_code": "DZ",
    "latitude": "22.78500000",
    "longitude": "5.52278000"
  },
  {
    "id": 31271,
    "name": "Bir el Ater",
    "state_id": 1117,
    "state_code": "12",
    "country_id": 4,
    "country_code": "DZ",
    "latitude": "34.74488000",
    "longitude": "8.06024000"
  },
  {
    "id": 31305,
    "name": "Cheria",
    "state_id": 1117,
    "state_code": "12",
    "country_id": 4,
    "country_code": "DZ",
    "latitude": "35.27306000",
    "longitude": "7.75194000"
  },
  {
    "id": 31352,
    "name": "Hammamet",
    "state_id": 1117,
    "state_code": "12",
    "country_id": 4,
    "country_code": "DZ",
    "latitude": "35.44862000",
    "longitude": "7.95184000"
  },
  {
    "id": 31463,
    "name": "Tébessa",
    "state_id": 1117,
    "state_code": "12",
    "country_id": 4,
    "country_code": "DZ",
    "latitude": "35.40417000",
    "longitude": "8.12417000"
  },
  {
    "id": 31472,
    "name": "’Aïn Deheb",
    "state_id": 1106,
    "state_code": "14",
    "country_id": 4,
    "country_code": "DZ",
    "latitude": "34.84218000",
    "longitude": "1.54697000"
  },
  {
    "id": 31317,
    "name": "Djebilet Rosfa",
    "state_id": 1106,
    "state_code": "14",
    "country_id": 4,
    "country_code": "DZ",
    "latitude": "34.86375000",
    "longitude": "0.83496000"
  },
  {
    "id": 31346,
    "name": "Frenda",
    "state_id": 1106,
    "state_code": "14",
    "country_id": 4,
    "country_code": "DZ",
    "latitude": "35.06544000",
    "longitude": "1.04945000"
  },
  {
    "id": 31365,
    "name": "Ksar Chellala",
    "state_id": 1106,
    "state_code": "14",
    "country_id": 4,
    "country_code": "DZ",
    "latitude": "35.21222000",
    "longitude": "2.31889000"
  },
  {
    "id": 31379,
    "name": "Mehdia daira de meghila",
    "state_id": 1106,
    "state_code": "14",
    "country_id": 4,
    "country_code": "DZ",
    "latitude": "35.43058000",
    "longitude": "1.75714000"
  },
  {
    "id": 31436,
    "name": "Sougueur",
    "state_id": 1106,
    "state_code": "14",
    "country_id": 4,
    "country_code": "DZ",
    "latitude": "35.18568000",
    "longitude": "1.49612000"
  },
  {
    "id": 31449,
    "name": "Tiaret",
    "state_id": 1106,
    "state_code": "14",
    "country_id": 4,
    "country_code": "DZ",
    "latitude": "35.37103000",
    "longitude": "1.31699000"
  },
  {
    "id": 31452,
    "name": "Tindouf",
    "state_id": 1120,
    "state_code": "37",
    "country_id": 4,
    "country_code": "DZ",
    "latitude": "27.67111000",
    "longitude": "-8.14743000"
  },
  {
    "id": 31470,
    "name": "’Aïn Benian",
    "state_id": 1115,
    "state_code": "42",
    "country_id": 4,
    "country_code": "DZ",
    "latitude": "36.80277000",
    "longitude": "2.92185000"
  },
  {
    "id": 31255,
    "name": "Baraki",
    "state_id": 1115,
    "state_code": "42",
    "country_id": 4,
    "country_code": "DZ",
    "latitude": "36.66655000",
    "longitude": "3.09606000"
  },
  {
    "id": 31283,
    "name": "Bou Ismaïl",
    "state_id": 1115,
    "state_code": "42",
    "country_id": 4,
    "country_code": "DZ",
    "latitude": "36.64262000",
    "longitude": "2.69007000"
  },
  {
    "id": 31304,
    "name": "Cheraga",
    "state_id": 1115,
    "state_code": "42",
    "country_id": 4,
    "country_code": "DZ",
    "latitude": "36.76775000",
    "longitude": "2.95924000"
  },
  {
    "id": 31320,
    "name": "Douera",
    "state_id": 1115,
    "state_code": "42",
    "country_id": 4,
    "country_code": "DZ",
    "latitude": "36.67000000",
    "longitude": "2.94444000"
  },
  {
    "id": 31328,
    "name": "El Affroun",
    "state_id": 1115,
    "state_code": "42",
    "country_id": 4,
    "country_code": "DZ",
    "latitude": "36.47010000",
    "longitude": "2.62528000"
  },
  {
    "id": 31349,
    "name": "Hadjout",
    "state_id": 1115,
    "state_code": "42",
    "country_id": 4,
    "country_code": "DZ",
    "latitude": "36.51257000",
    "longitude": "2.41382000"
  },
  {
    "id": 31364,
    "name": "Kolea",
    "state_id": 1115,
    "state_code": "42",
    "country_id": 4,
    "country_code": "DZ",
    "latitude": "36.63888000",
    "longitude": "2.76845000"
  },
  {
    "id": 31389,
    "name": "Mouzaïa",
    "state_id": 1115,
    "state_code": "42",
    "country_id": 4,
    "country_code": "DZ",
    "latitude": "36.46695000",
    "longitude": "2.68991000"
  },
  {
    "id": 31401,
    "name": "Oued el Alleug",
    "state_id": 1115,
    "state_code": "42",
    "country_id": 4,
    "country_code": "DZ",
    "latitude": "36.55528000",
    "longitude": "2.79028000"
  },
  {
    "id": 31418,
    "name": "Saoula",
    "state_id": 1115,
    "state_code": "42",
    "country_id": 4,
    "country_code": "DZ",
    "latitude": "36.70456000",
    "longitude": "3.02462000"
  },
  {
    "id": 31453,
    "name": "Tipasa",
    "state_id": 1115,
    "state_code": "42",
    "country_id": 4,
    "country_code": "DZ",
    "latitude": "36.58972000",
    "longitude": "2.44750000"
  },
  {
    "id": 31465,
    "name": "Zeralda",
    "state_id": 1115,
    "state_code": "42",
    "country_id": 4,
    "country_code": "DZ",
    "latitude": "36.71169000",
    "longitude": "2.84244000"
  },
  {
    "id": 31370,
    "name": "Lardjem",
    "state_id": 1133,
    "state_code": "38",
    "country_id": 4,
    "country_code": "DZ",
    "latitude": "35.74922000",
    "longitude": "1.54778000"
  },
  {
    "id": 31455,
    "name": "Tissemsilt",
    "state_id": 1133,
    "state_code": "38",
    "country_id": 4,
    "country_code": "DZ",
    "latitude": "35.60722000",
    "longitude": "1.81081000"
  },
  {
    "id": 31476,
    "name": "’Aïn el Hammam",
    "state_id": 1131,
    "state_code": "15",
    "country_id": 4,
    "country_code": "DZ",
    "latitude": "36.56471000",
    "longitude": "4.30619000"
  },